{
  "name": "Sander van Doorn",
  "monthly_listeners": 829701,
  "followers": 359981,
  "verified": true,
  "top_cities": [
    {
      "city": "Mexico City",
      "country": "MX",
      "region": "CMX",
      "listeners": 15378
    },
    {
      "city": "Amsterdam",
      "country": "NL",
      "region": "NH",
      "listeners": 12502
    },
    {
      "city": "Hamburg",
      "country": "DE",
      "region": "HH",
      "listeners": 8650
    },
    {
      "city": "Santiago",
      "country": "CL",
      "region": "RM",
      "listeners": 8510
    },
    {
      "city": "Rotterdam",
      "country": "NL",
      "region": "ZH",
      "listeners": 7573
    }
  ],
  "social_links": {
    "facebook": "https://facebook.com/sandervandoorn",
    "instagram": "https://instagram.com/sandervandoornofficial/",
    "twitter": "https://twitter.com/sandervandoorn"
  },
  "upcoming_concerts": [
    {
      "title": "Sander van Doorn",
      "date": "2025-03-08T04:00-03:00",
      "location": {
        "name": "Amerika",
        "city": "Buenos Aires"
      },
      "festival": false
    },
    {
      "title": "Sander van Doorn",
      "date": "2025-03-31T00:00+02:00",
      "location": {
        "name": "S\u00f6lden",
        "city": "Soelden"
      },
      "festival": false
    },
    {
      "title": "Sander van Doorn",
      "date": "2025-04-02T00:00+02:00",
      "location": {
        "name": "S\u00f6lden",
        "city": "Soelden"
      },
      "festival": false
    },
    {
      "title": "Sander van Doorn",
      "date": "2025-04-12T03:00+02:00",
      "location": {
        "name": "Gliwice Arena",
        "city": "Gliwice"
      },
      "festival": false
    },
    {
      "title": "Sander van Doorn",
      "date": "2025-04-19T00:00+02:00",
      "location": {
        "name": "Europaper Import Company Epic S.r.o.",
        "city": "Hlavn\u00ed M\u011bsto Praha"
      },
      "festival": false
    },
    {
      "title": "Sander van Doorn",
      "date": "2025-06-27T17:00+02:00",
      "location": {
        "name": "Bernie's beach club",
        "city": "Zandvoort"
      },
      "festival": false
    },
    {
      "title": "Sander van Doorn",
      "date": "2025-06-28T19:10+02:00",
      "location": {
        "name": "Bernie's beach club",
        "city": "Zandvoort"
      },
      "festival": false
    },
    {
      "title": "Sander van Doorn",
      "date": "2025-07-20T19:00+02:00",
      "location": {
        "name": "Provincial Recreation Domain De Schorre",
        "city": "Boom"
      },
      "festival": false
    },
    {
      "title": "Sander van Doorn",
      "date": "2025-08-02T00:00+02:00",
      "location": {
        "name": "Beachclub Fuel",
        "city": "Overveen"
      },
      "festival": false
    },
    {
      "title": "Sander van Doorn",
      "date": "2025-08-16T22:00+02:00",
      "location": {
        "name": "De Roosdonck, Nuenen",
        "city": "Nuenen"
      },
      "festival": false
    }
  ]
}