{
  "name": "Aly & Fila",
  "monthly_listeners": 489414,
  "followers": 174420,
  "verified": true,
  "top_cities": [
    {
      "city": "Mexico City",
      "country": "MX",
      "region": "CMX",
      "listeners": 10475
    },
    {
      "city": "Sydney",
      "country": "AU",
      "region": "NSW",
      "listeners": 9056
    },
    {
      "city": "Melbourne",
      "country": "AU",
      "region": "VIC",
      "listeners": 9031
    },
    {
      "city": "London",
      "country": "GB",
      "region": "ENG",
      "listeners": 8522
    },
    {
      "city": "Amsterdam",
      "country": "NL",
      "region": "NH",
      "listeners": 8133
    }
  ],
  "social_links": {
    "facebook": "https://facebook.com/alyandfila",
    "instagram": "https://instagram.com/alyandfila",
    "twitter": "https://twitter.com/alyandfila",
    "wikipedia": "https://en.wikipedia.org/wiki/Aly_%26_Fila"
  },
  "upcoming_concerts": [
    {
      "title": "Aly & Fila",
      "date": "2025-03-14T22:00Z",
      "location": {
        "name": "Arts Club",
        "city": "Liverpool"
      },
      "festival": false
    },
    {
      "title": "Aly & Fila",
      "date": "2025-03-15T23:59+01:00",
      "location": {
        "name": "LAB theCLUB",
        "city": "Madrid"
      },
      "festival": false
    },
    {
      "title": "Alex M.O.R.P.H., Aly & Fila, Farius",
      "date": "2025-03-22T14:00Z",
      "location": {
        "name": "HERE at Outernet",
        "city": "London"
      },
      "festival": false
    },
    {
      "title": "Ferry Corsten, Eelke Kleijn, Giuseppe Ottaviani, Cosmic Gate, Aly & Fila, Anthony Attalla, Simon Doty, Luccio, Carlo Lio, Adapter, Mat.Joe, FREAK ON, Guz, Infected Mushroom, Galo",
      "date": "2025-03-26T16:00-04:00",
      "location": {
        "name": "La Otra Wynwood",
        "city": "Miami"
      },
      "festival": false
    },
    {
      "title": "Ferry Corsten, Gabriel & Dresden, Aly & Fila, Luccio",
      "date": "2025-03-28T23:00-04:00",
      "location": {
        "name": "La Otra Wynwood",
        "city": "Miami"
      },
      "festival": false
    },
    {
      "title": "Paul van Dyk, Aly & Fila",
      "date": "2025-09-25T23:55+02:00",
      "location": {
        "name": "Eden Ibiza",
        "city": "Sant Antoni de Portmany"
      },
      "festival": false
    }
  ]
}