{
  "name": "Hernan Cattaneo",
  "monthly_listeners": 397444,
  "followers": 254176,
  "verified": true,
  "top_cities": [
    {
      "city": "Buenos Aires",
      "country": "AR",
      "region": "C",
      "listeners": 47707
    },
    {
      "city": "Buenos Aires",
      "country": "AR",
      "region": "B",
      "listeners": 20971
    },
    {
      "city": "C\u00f3rdoba",
      "country": "AR",
      "region": "X",
      "listeners": 12600
    },
    {
      "city": "Santiago",
      "country": "CL",
      "region": "RM",
      "listeners": 10550
    },
    {
      "city": "Mexico City",
      "country": "MX",
      "region": "CMX",
      "listeners": 6135
    }
  ],
  "social_links": {
    "facebook": "https://facebook.com/hernancattaneo",
    "instagram": "https://instagram.com/djhernancattaneo",
    "twitter": "https://twitter.com/cattaneo_hernan"
  },
  "upcoming_concerts": [
    {
      "title": "Hernan Cattaneo, Mike Isai",
      "date": "2025-03-21T22:00-04:00",
      "location": {
        "name": "Park Slope Brooklyn Warehouse",
        "city": "New York City"
      },
      "festival": false
    },
    {
      "title": "Hernan Cattaneo, Nick Warren, Layla Benitez, Danyelino, Deer Jade, Enamour",
      "date": "2025-03-22T23:00-04:00",
      "location": {
        "name": "Club Space Miami",
        "city": "Miami"
      },
      "festival": false
    },
    {
      "title": "Hernan Cattaneo",
      "date": "2025-03-26T16:00-04:00",
      "location": {
        "name": "South Beach Lady Yacht Charter",
        "city": "Hollywood"
      },
      "festival": false
    },
    {
      "title": "Marco Carola, Hernan Cattaneo, Sasha, Deer Jade, Enamour, Facundo Mohrr, Ben Sterling, Max Stern, Sasha",
      "date": "2025-03-27T19:00-04:00",
      "location": {
        "name": "Factory Town",
        "city": "Miami"
      },
      "festival": false
    },
    {
      "title": "Hernan Cattaneo",
      "date": "2025-04-10T20:00+02:00",
      "location": {
        "name": "Akasha Ibiza",
        "city": "San Carlos"
      },
      "festival": false
    },
    {
      "title": "Hernan Cattaneo",
      "date": "2025-04-11T23:00+02:00",
      "location": {
        "name": "Warehouse Elementenstraat",
        "city": "Amsterdam"
      },
      "festival": false
    },
    {
      "title": "Hernan Cattaneo",
      "date": "2025-04-12T23:00+01:00",
      "location": {
        "name": "Index",
        "city": "Dublin 7"
      },
      "festival": false
    },
    {
      "title": "Hernan Cattaneo, John Cosani, Graziano Raffa",
      "date": "2025-04-13T12:00+01:00",
      "location": {
        "name": "Radisson Red Sky Bar",
        "city": "Glasgow"
      },
      "festival": false
    },
    {
      "title": "Hernan Cattaneo",
      "date": "2025-04-17T16:00+05:30",
      "location": {
        "name": "La Foresta",
        "city": "Colombo"
      },
      "festival": false
    },
    {
      "title": "Danny Howells, Hernan Cattaneo",
      "date": "2025-04-18T22:00+01:00",
      "location": {
        "name": "KOKO",
        "city": "London"
      },
      "festival": false
    }
  ]
}