{
  "name": "Gabriel & Dresden",
  "monthly_listeners": 559062,
  "followers": 85760,
  "verified": true,
  "top_cities": [
    {
      "city": "London",
      "country": "GB",
      "region": "ENG",
      "listeners": 12849
    },
    {
      "city": "Dublin",
      "country": "IE",
      "region": "L",
      "listeners": 11455
    },
    {
      "city": "Mexico City",
      "country": "MX",
      "region": "CMX",
      "listeners": 11104
    },
    {
      "city": "Melbourne",
      "country": "AU",
      "region": "VIC",
      "listeners": 10926
    },
    {
      "city": "Warsaw",
      "country": "PL",
      "region": "14",
      "listeners": 9409
    }
  ],
  "social_links": {
    "facebook": "https://facebook.com/gabrielanddresden",
    "instagram": "https://instagram.com/gabrielndresden",
    "twitter": "https://twitter.com/gabrielndresden",
    "wikipedia": "https://wikipedia.org/wiki/Gabriel_%26_Dresden"
  },
  "upcoming_concerts": [
    {
      "title": "Ferry Corsten, Gabriel & Dresden, Aly & Fila, Luccio",
      "date": "2025-03-28T23:00-04:00",
      "location": {
        "name": "La Otra Wynwood",
        "city": "Miami"
      },
      "festival": false
    },
    {
      "title": "Gabriel & Dresden",
      "date": "2025-04-25T21:30-07:00",
      "location": {
        "name": "Audio SF",
        "city": "San Francisco"
      },
      "festival": false
    },
    {
      "title": "Gabriel & Dresden",
      "date": "2025-05-02T22:00-07:00",
      "location": {
        "name": "Discopussy",
        "city": "Las Vegas"
      },
      "festival": false
    },
    {
      "title": "Gabriel & Dresden",
      "date": "2025-05-24T22:00-07:00",
      "location": {
        "name": "Sound Nightclub",
        "city": "Los Angeles"
      },
      "festival": false
    },
    {
      "title": "DVBBS, Capochino, Daniel Allan, Deathpact, Gabriel & Dresden, HNTR, Kompany, Linska, Paper Skies",
      "date": "2025-06-20T17:00-04:00",
      "location": {
        "name": "Lansdowne Park",
        "city": "Ottawa"
      },
      "festival": false
    },
    {
      "title": "Gabriel & Dresden, Doppenberg, Leena Punks, Nifra, Nikolauss, RAM",
      "date": "2025-06-26T17:00+02:00",
      "location": {
        "name": "Bernie's beach club",
        "city": "Zandvoort"
      },
      "festival": false
    }
  ]
}