{
  "name": "Pete Tong",
  "monthly_listeners": 764828,
  "followers": 174235,
  "verified": true,
  "top_cities": [
    {
      "city": "London",
      "country": "GB",
      "region": "ENG",
      "listeners": 31606
    },
    {
      "city": "Sydney",
      "country": "AU",
      "region": "NSW",
      "listeners": 12365
    },
    {
      "city": "Melbourne",
      "country": "AU",
      "region": "VIC",
      "listeners": 10525
    },
    {
      "city": "Birmingham",
      "country": "GB",
      "region": "ENG",
      "listeners": 10219
    },
    {
      "city": "Dublin",
      "country": "IE",
      "region": "L",
      "listeners": 10211
    }
  ],
  "social_links": {
    "facebook": "https://facebook.com/petetong",
    "instagram": "https://instagram.com/petetongofficial",
    "twitter": "https://twitter.com/petetong",
    "wikipedia": "https://en.wikipedia.org/wiki/Pete_Tong"
  },
  "upcoming_concerts": [
    {
      "title": "Pete Tong, Ibiza Chill Out Classics",
      "date": "2025-05-29T19:00+01:00",
      "location": {
        "name": "Royal Albert Hall",
        "city": "London"
      },
      "festival": false
    },
    {
      "title": "Pete Tong, Ibiza Chill Out Classics",
      "date": "2025-05-30T19:00+01:00",
      "location": {
        "name": "Royal Albert Hall",
        "city": "London"
      },
      "festival": false
    },
    {
      "title": "Pete Tong, Ibiza Chill Out Classics",
      "date": "2025-05-31T19:00+01:00",
      "location": {
        "name": "Royal Albert Hall",
        "city": "London"
      },
      "festival": false
    },
    {
      "title": "Pete Tong, Ibiza Chill Out Classics",
      "date": "2025-06-01T19:00+01:00",
      "location": {
        "name": "Royal Albert Hall",
        "city": "London"
      },
      "festival": false
    },
    {
      "title": "Pete Tong, Ibiza Chill Out Classics",
      "date": "2025-12-06T18:00Z",
      "location": {
        "name": "AO Arena",
        "city": "Manchester"
      },
      "festival": false
    },
    {
      "title": "Pete Tong, Ibiza Chill Out Classics",
      "date": "2025-12-10T18:00Z",
      "location": {
        "name": "First Direct Arena",
        "city": "Leeds"
      },
      "festival": false
    },
    {
      "title": "Pete Tong, Ibiza Chill Out Classics",
      "date": "2025-12-11T19:30Z",
      "location": {
        "name": "Utilita Arena Birmingham",
        "city": "Birmingham"
      },
      "festival": false
    },
    {
      "title": "Pete Tong, Ibiza Chill Out Classics",
      "date": "2025-12-12T19:00Z",
      "location": {
        "name": "The O2",
        "city": "London"
      },
      "festival": false
    },
    {
      "title": "Pete Tong, Ibiza Chill Out Classics",
      "date": "2025-12-13T19:00Z",
      "location": {
        "name": "The O2",
        "city": "London"
      },
      "festival": false
    }
  ]
}