{
  "name": "Deep Dish",
  "monthly_listeners": 523095,
  "followers": 81769,
  "verified": true,
  "top_cities": [
    {
      "city": "London",
      "country": "GB",
      "region": "ENG",
      "listeners": 25844
    },
    {
      "city": "Dublin",
      "country": "IE",
      "region": "L",
      "listeners": 13274
    },
    {
      "city": "Manchester",
      "country": "GB",
      "region": "ENG",
      "listeners": 11864
    },
    {
      "city": "Glasgow",
      "country": "GB",
      "region": "SCT",
      "listeners": 10932
    },
    {
      "city": "Birmingham",
      "country": "GB",
      "region": "ENG",
      "listeners": 10601
    }
  ],
  "social_links": {
    "facebook": "https://facebook.com/deepdish",
    "instagram": "https://instagram.com/deepdish"
  },
  "upcoming_concerts": [
    {
      "title": "Deep Dish, Victor Calderone, Danyelino",
      "date": "2025-03-14T23:00-04:00",
      "location": {
        "name": "Club Space Miami",
        "city": "Miami"
      },
      "festival": false
    },
    {
      "title": "Deep Dish",
      "date": "2025-04-04T19:00-05:00",
      "location": {
        "name": "It'll Do Club",
        "city": "Dallas"
      },
      "festival": false
    },
    {
      "title": "Deep Dish",
      "date": "2025-04-05T21:00-05:00",
      "location": {
        "name": "It'll Do Club",
        "city": "Dallas"
      },
      "festival": false
    },
    {
      "title": "Deep Dish",
      "date": "2025-04-06T19:00-06:00",
      "location": {
        "name": "Parque Fundidora",
        "city": "Monterrey"
      },
      "festival": false
    },
    {
      "title": "Deep Dish",
      "date": "2025-05-04T23:00+01:00",
      "location": {
        "name": "fabric",
        "city": "London"
      },
      "festival": false
    },
    {
      "title": "Deep Dish",
      "date": "2025-07-19T22:00-05:00",
      "location": {
        "name": "Cermak Hall",
        "city": "Chicago"
      },
      "festival": false
    },
    {
      "title": "Deep Dish",
      "date": "2025-07-27T12:00+01:00",
      "location": {
        "name": "Radisson RED Glasgow",
        "city": "Glasgow"
      },
      "festival": false
    },
    {
      "title": "Deep Dish",
      "date": "2025-08-08T19:00+02:00",
      "location": {
        "name": "The Garden Resort Croatia",
        "city": "Tisno"
      },
      "festival": false
    }
  ]
}