{
  "name": "Sasha",
  "monthly_listeners": 144049,
  "followers": 13083,
  "verified": true,
  "top_cities": [
    {
      "city": "London",
      "country": "GB",
      "region": "ENG",
      "listeners": 4824
    },
    {
      "city": "Toronto",
      "country": "CA",
      "region": "ON",
      "listeners": 3954
    },
    {
      "city": "Brooklyn",
      "country": "US",
      "region": "NY",
      "listeners": 3050
    },
    {
      "city": "Birmingham",
      "country": "GB",
      "region": "ENG",
      "listeners": 3046
    },
    {
      "city": "New York City",
      "country": "US",
      "region": "NY",
      "listeners": 2524
    }
  ],
  "social_links": {},
  "upcoming_concerts": [
    {
      "title": "Sasha",
      "date": "2025-03-08T23:00Z",
      "location": {
        "name": "Archives LDN",
        "city": "North London"
      },
      "festival": false
    },
    {
      "title": "Sasha",
      "date": "2025-03-15T14:00+11:00",
      "location": {
        "name": "Greenwood Hotel",
        "city": "North Sydney"
      },
      "festival": false
    },
    {
      "title": "Sasha",
      "date": "2025-03-16T15:00+10:00",
      "location": {
        "name": "The Triffid",
        "city": "Newstead"
      },
      "festival": false
    },
    {
      "title": "Sasha",
      "date": "2025-03-22T15:30+11:00",
      "location": {
        "name": "Northcote Social Club",
        "city": "Northcote"
      },
      "festival": false
    },
    {
      "title": "Sasha",
      "date": "2025-03-23T20:00+08:00",
      "location": {
        "name": "Port Beach Brewery",
        "city": "Perth"
      },
      "festival": false
    },
    {
      "title": "Marco Carola, Hernan Cattaneo, Sasha, Deer Jade, Enamour, Facundo Mohrr, Ben Sterling, Max Stern, Sasha",
      "date": "2025-03-27T19:00-04:00",
      "location": {
        "name": "Factory Town",
        "city": "Miami"
      },
      "festival": false
    },
    {
      "title": "Eli & Fur, HANA, Jody Wisternoff, Qrion, Sasha, HANA, Marsh",
      "date": "2025-03-29T16:00-04:00",
      "location": {
        "name": "Wynwood Marketplace ",
        "city": "Miami"
      },
      "festival": false
    },
    {
      "title": "Sasha, John Digweed",
      "date": "2025-04-05T21:00-06:00",
      "location": {
        "name": "Sala Urbana",
        "city": "Naucalpan De Ju\u00e1rez"
      },
      "festival": false
    },
    {
      "title": "Sasha",
      "date": "2025-04-26T16:00+01:00",
      "location": {
        "name": "The Caves",
        "city": "Edinburgh"
      },
      "festival": false
    },
    {
      "title": "Sasha",
      "date": "2025-06-07T21:00+03:00",
      "location": {
        "name": "Bolivar Beach Bar",
        "city": "Athens"
      },
      "festival": false
    }
  ]
}