{
  "name": "Biscits",
  "monthly_listeners": 2104865,
  "followers": 85362,
  "verified": true,
  "top_cities": [
    {
      "city": "Sydney",
      "country": "AU",
      "region": "NSW",
      "listeners": 34981
    },
    {
      "city": "London",
      "country": "GB",
      "region": "ENG",
      "listeners": 33502
    },
    {
      "city": "Amsterdam",
      "country": "NL",
      "region": "NH",
      "listeners": 30572
    },
    {
      "city": "Melbourne",
      "country": "AU",
      "region": "VIC",
      "listeners": 28563
    },
    {
      "city": "Los Angeles",
      "country": "US",
      "region": "CA",
      "listeners": 28465
    }
  ],
  "social_links": {
    "facebook": "https://facebook.com/biscits/",
    "instagram": "https://instagram.com/itsbiscits/",
    "twitter": "https://twitter.com/BiscitsMusic"
  },
  "upcoming_concerts": [
    {
      "title": "Biscits",
      "date": "2025-03-21T22:00-07:00",
      "location": {
        "name": "Time Nightclub",
        "city": "Costa Mesa"
      },
      "festival": false
    },
    {
      "title": "Biscits",
      "date": "2025-03-22T22:00-07:00",
      "location": {
        "name": "Q Nightclub",
        "city": "Seattle"
      },
      "festival": false
    },
    {
      "title": "Biscits",
      "date": "2025-04-18T22:00-07:00",
      "location": {
        "name": "Upstairs Cabaret",
        "city": "Victoria"
      },
      "festival": false
    },
    {
      "title": "Biscits",
      "date": "2025-04-19T22:00-07:00",
      "location": {
        "name": "Celebrities",
        "city": "Vancouver"
      },
      "festival": false
    },
    {
      "title": "Biscits",
      "date": "2025-04-20T21:00-06:00",
      "location": {
        "name": "Commonwealth Bar",
        "city": "Calgary"
      },
      "festival": false
    },
    {
      "title": "Biscits, Sasha GiGi, Tony Romera",
      "date": "2025-05-02T23:00+01:00",
      "location": {
        "name": "E1",
        "city": "London"
      },
      "festival": false
    },
    {
      "title": "John Newman, Topic, NERVO, Matt Sassari, Biscits, Jaxomy, Toby Romeo, Luciid",
      "date": "2025-05-09T13:00+02:00",
      "location": {
        "name": "Place de l\u2019Acad\u00e9mie",
        "city": "Esch-Belval Esch-sur-Alzette"
      },
      "festival": false
    },
    {
      "title": "Armin van Buuren, AHEE, ALLEYCVT, AM\u00c9M\u00c9, ARMNHMR, ATLiens, Adam Ten, Ahmed Spins, Alex Chapman, Alignment, Armand Van Helden, Arodes, Avalon, Basstripper, Basswell, BICEP, BIIA, Billy Gillies, Biscits, Brutalismus 3000, CHYL, Caravel, Carlita, Cera Khin, Chase & Status, ChaseWest, Clara Cuv\u00e9, Cloonee, Code Black, D-Sturb, DJ Gigola, Da Tweekaz, DANNY AVILA, Darren Styles, David Forbes, David Rust, Dennis Cruz, Deorro, Disco Lines, Distinct Motive, Drinkurwater, Eric Prydz, Fcukers, Funk Tribu, Fury, Gesaffelstein, Gorgon City, GUDFELLA, HUGEL, Hannah Laing, Hedex, Hot Since 82, I Hate Models, INFEKT, Interplanetary Criminal, INZO, Jackie Hollander, James Hype, Jessica Audiffred, KAMI, Ky William, Kyle Watson, Lake Hills, Lil Texas, Lady Faith, Lavern, Layz, Level Up, Levity, Masha Mar, MPH, MALUGI, Marlon Hoffstadt, Mau P, Mita Gami, Nala, Rusko, SOTA, Dylan Brady, horsegiirL, it's murph",
      "date": "2025-05-16T17:00-07:00",
      "location": {
        "name": "Las Vegas Motor Speedway",
        "city": "Las Vegas"
      },
      "festival": false
    },
    {
      "title": "SLANDER, Yellow Claw, Bou, Le Youth, MK, AHEE, ARMNHMR, BIIANCO, Bassrush, Basstripper, Biscits, Cassian, Coco & Breezy, D.O.D, DANNY AVILA, Gene Farris, Godlands, Green Velvet, Hedex, Jackie Hollander, James Hype, Jessica Audiffred, Level Up, MOONLGHT, MPH, Matroda, MEDUZA, Mersiv, Netsky, Nikita, the Wicked, Odd Mob, OMNOM, Ravenscoon, San Pacho, SIDEPIECE, SampliFire, Subtronics, Tom & Collins, TroyBoi, Virtual Riot, Walker & Royce, Wilkinson, $wooli, YDG, Zen Selekta, Martin Ikin, \u00c6ON:MODE",
      "date": "2025-06-07T17:00-05:00",
      "location": {
        "name": "Huntington Bank Pavilion at Northerly Island",
        "city": "Chicago"
      },
      "festival": false
    },
    {
      "title": "Biscits",
      "date": "2025-06-20T22:00-07:00",
      "location": {
        "name": "45 East",
        "city": "Portland"
      },
      "festival": false
    }
  ]
}