{
  "name": "KREAM",
  "monthly_listeners": 2996908,
  "followers": 287253,
  "verified": true,
  "top_cities": [
    {
      "city": "Oslo",
      "country": "NO",
      "region": "03",
      "listeners": 46005
    },
    {
      "city": "Sydney",
      "country": "AU",
      "region": "NSW",
      "listeners": 43148
    },
    {
      "city": "Stockholm",
      "country": "SE",
      "region": "AB",
      "listeners": 42539
    },
    {
      "city": "Amsterdam",
      "country": "NL",
      "region": "NH",
      "listeners": 36807
    },
    {
      "city": "Melbourne",
      "country": "AU",
      "region": "VIC",
      "listeners": 35688
    }
  ],
  "social_links": {
    "instagram": "https://instagram.com/wearekream",
    "wikipedia": "https://en.wikipedia.org/wiki/Kream"
  },
  "upcoming_concerts": [
    {
      "title": "KREAM",
      "date": "2025-03-07T20:00+01:00",
      "location": {
        "name": "Vulkan Arena",
        "city": "Oslo"
      },
      "festival": false
    },
    {
      "title": "KREAM",
      "date": "2025-03-07T22:30+01:00",
      "location": {
        "name": "Smelteverket",
        "city": "Oslo"
      },
      "festival": false
    },
    {
      "title": "KREAM",
      "date": "2025-03-08T23:00+01:00",
      "location": {
        "name": "Stavkroa",
        "city": "Hemsedal"
      },
      "festival": false
    },
    {
      "title": "KREAM",
      "date": "2025-03-21T22:00+01:00",
      "location": {
        "name": "Ritter Butzke",
        "city": "Berlin"
      },
      "festival": false
    },
    {
      "title": "KREAM",
      "date": "2025-03-22T22:00+01:00",
      "location": {
        "name": "Akv\u00e1rium Klub",
        "city": "Budapest"
      },
      "festival": false
    },
    {
      "title": "KREAM",
      "date": "2025-04-04T22:00-04:00",
      "location": {
        "name": "DPRTMNT",
        "city": "Toronto"
      },
      "festival": false
    },
    {
      "title": "Breakaway Music Festival Dallas 2025",
      "date": "2025-04-05T16:00-05:00",
      "location": {
        "name": "Fair Park",
        "city": "Dallas"
      },
      "festival": true
    },
    {
      "title": "KREAM",
      "date": "2025-04-11T23:59+02:00",
      "location": {
        "name": "LAB theCLUB",
        "city": "Madrid"
      },
      "festival": false
    },
    {
      "title": "KREAM",
      "date": "2025-04-19T19:30+02:00",
      "location": {
        "name": "Melkweg",
        "city": "Amsterdam"
      },
      "festival": false
    },
    {
      "title": "KREAM",
      "date": "2025-04-19T22:00+02:00",
      "location": {
        "name": "Melkweg",
        "city": "Amsterdam"
      },
      "festival": false
    }
  ]
}