{
  "name": "Gareth Emery",
  "monthly_listeners": 1377504,
  "followers": 335038,
  "verified": true,
  "top_cities": [
    {
      "city": "Sydney",
      "country": "AU",
      "region": "NSW",
      "listeners": 25640
    },
    {
      "city": "Glasgow",
      "country": "GB",
      "region": "SCT",
      "listeners": 24866
    },
    {
      "city": "London",
      "country": "GB",
      "region": "ENG",
      "listeners": 24794
    },
    {
      "city": "Melbourne",
      "country": "AU",
      "region": "VIC",
      "listeners": 21756
    },
    {
      "city": "Stockholm",
      "country": "SE",
      "region": "AB",
      "listeners": 18044
    }
  ],
  "social_links": {
    "facebook": "https://facebook.com/garethemery",
    "instagram": "https://instagram.com/garethemery/",
    "twitter": "https://twitter.com/garethemery"
  },
  "upcoming_concerts": [
    {
      "title": "Gareth Emery, LSR/CITY",
      "date": "2025-03-05T18:00-05:00",
      "location": {
        "name": "The Bluestone",
        "city": "Columbus"
      },
      "festival": false
    },
    {
      "title": "Gareth Emery, LSR/CITY",
      "date": "2025-03-06T20:00-05:00",
      "location": {
        "name": "Royal Oak Music Theatre",
        "city": "Royal Oak"
      },
      "festival": false
    },
    {
      "title": "Gareth Emery, LSR/CITY",
      "date": "2025-03-08T18:00-06:00",
      "location": {
        "name": "Radius Chicago",
        "city": "Chicago"
      },
      "festival": false
    },
    {
      "title": "Gareth Emery",
      "date": "2025-03-08T22:00-06:00",
      "location": {
        "name": "Radius",
        "city": "Chicago"
      },
      "festival": false
    },
    {
      "title": "City, Gareth Emery, Annabel, VisionV, LSR/CITY",
      "date": "2025-03-12T20:00-07:00",
      "location": {
        "name": "Paramount Theatre",
        "city": "Seattle"
      },
      "festival": false
    },
    {
      "title": "Gareth Emery",
      "date": "2025-03-14T21:00-06:00",
      "location": {
        "name": "The Palace Theatre",
        "city": "Calgary"
      },
      "festival": false
    },
    {
      "title": "Gareth Emery",
      "date": "2025-03-15T18:00-07:00",
      "location": {
        "name": "Pacific Coliseum",
        "city": "Vancouver"
      },
      "festival": false
    },
    {
      "title": "Gareth Emery, LSR/CITY",
      "date": "2025-03-15T23:00-07:00",
      "location": {
        "name": "Enso Event Centre",
        "city": "Vancouver"
      },
      "festival": false
    },
    {
      "title": "Gareth Emery, LSR/CITY",
      "date": "2025-03-18T18:00-07:00",
      "location": {
        "name": "McDonald Theatre",
        "city": "Eugene"
      },
      "festival": false
    },
    {
      "title": "City, Gareth Emery, Annabel, VisionV, LSR/CITY",
      "date": "2025-03-21T20:00-07:00",
      "location": {
        "name": "Bill Graham Civic Auditorium",
        "city": "San Francisco"
      },
      "festival": false
    }
  ]
}