{
  "name": "Maddix",
  "monthly_listeners": 5109862,
  "followers": 185593,
  "verified": true,
  "top_cities": [
    {
      "city": "Hamburg",
      "country": "DE",
      "region": "HH",
      "listeners": 108652
    },
    {
      "city": "Amsterdam",
      "country": "NL",
      "region": "NH",
      "listeners": 91452
    },
    {
      "city": "Berlin",
      "country": "DE",
      "region": "BE",
      "listeners": 90506
    },
    {
      "city": "Munich",
      "country": "DE",
      "region": "BY",
      "listeners": 80133
    },
    {
      "city": "Brussels",
      "country": "BE",
      "region": "BRU",
      "listeners": 79586
    }
  ],
  "social_links": {
    "facebook": "https://facebook.com/maddixmusic",
    "instagram": "https://instagram.com/maddixmusic",
    "twitter": "https://twitter.com/maddixmusic",
    "wikipedia": "https://en.wikipedia.org/wiki/Maddix_(DJ)"
  },
  "upcoming_concerts": [
    {
      "title": "Maddix",
      "date": "2025-03-22T17:00+08:00",
      "location": {
        "name": "Yang Cheng Lake Suzhou",
        "city": "Suzhou"
      },
      "festival": false
    },
    {
      "title": "Maddix",
      "date": "2025-03-28T17:00-04:00",
      "location": {
        "name": "Bayfront Park",
        "city": "Miami"
      },
      "festival": false
    },
    {
      "title": "Maddix",
      "date": "2025-03-28T17:00-07:00",
      "location": {
        "name": "NOS Event Center",
        "city": "San Bernardino"
      },
      "festival": false
    },
    {
      "title": "Maddix",
      "date": "2025-04-04T17:00-07:00",
      "location": {
        "name": "Cow Palace",
        "city": "United States Canyon"
      },
      "festival": false
    },
    {
      "title": "Maddix",
      "date": "2025-04-04T22:00-07:00",
      "location": {
        "name": "45 East",
        "city": "Portland"
      },
      "festival": false
    },
    {
      "title": "Maddix",
      "date": "2025-04-11T17:00+07:00",
      "location": {
        "name": "RCA",
        "city": "Khet Huai Khwang"
      },
      "festival": false
    },
    {
      "title": "Maddix",
      "date": "2025-04-11T23:00+03:00",
      "location": {
        "name": "Palladium Riga",
        "city": "Riga"
      },
      "festival": false
    },
    {
      "title": "Maddix",
      "date": "2025-04-12T17:00+02:00",
      "location": {
        "name": "PREZERO ARENA GLIWICE",
        "city": "Gliwice"
      },
      "festival": false
    },
    {
      "title": "Maddix",
      "date": "2025-04-25T17:00+09:00",
      "location": {
        "name": "INSPIRE Entertainment Resort",
        "city": "Chungcheongnam-do"
      },
      "festival": false
    },
    {
      "title": "Maddix",
      "date": "2025-05-16T17:00-07:00",
      "location": {
        "name": "EDC Las Vegas",
        "city": "Las Vegas"
      },
      "festival": false
    }
  ]
}