{
  "name": "Armin van Buuren",
  "monthly_listeners": 15075292,
  "followers": 4502536,
  "verified": true,
  "top_cities": [
    {
      "city": "Amsterdam",
      "country": "NL",
      "region": "NH",
      "listeners": 359323
    },
    {
      "city": "Mexico City",
      "country": "MX",
      "region": "CMX",
      "listeners": 247764
    },
    {
      "city": "Rotterdam",
      "country": "NL",
      "region": "ZH",
      "listeners": 242034
    },
    {
      "city": "Brussels",
      "country": "BE",
      "region": "BRU",
      "listeners": 185068
    },
    {
      "city": "Warsaw",
      "country": "PL",
      "region": "14",
      "listeners": 182347
    }
  ],
  "social_links": {
    "facebook": "https://facebook.com/arminvanbuuren",
    "instagram": "https://instagram.com/arminvanbuuren",
    "twitter": "https://twitter.com/arminvanbuuren"
  },
  "upcoming_concerts": [
    {
      "title": "Armin van Buuren",
      "date": "2025-03-15T17:00+01:00",
      "location": {
        "name": "Alpe d'Huez",
        "city": "Alpe D\u2019huez"
      },
      "festival": false
    },
    {
      "title": "999999999, Above & Beyond, Adam Beyer, AFROJACK, Alesso, Anyma, Solomun, Armin van Buuren, ARTBAT, Axwell, Boris Brejcha, Carl Cox, Charlotte de Witte, Chase & Status, deadmau5, Pendulum, Eli Brown, Dom Dolla, John Summit, Four Tet, Gesaffelstein, Hardwell, I Hate Models, LSDREAM, CloZee, Martin Garrix, Mau P, Miss Monique, Nero, NGHTMRE, Sullivan King, Richie Hawtin, Subtronics, Ti\u00ebsto, Zedd, Zeds Dead",
      "date": "2025-03-30T12:00-04:00",
      "location": {
        "name": "FPL Solar Amphitheater at Bayfront Park",
        "city": "Miami"
      },
      "festival": false
    },
    {
      "title": "Armin van Buuren",
      "date": "2025-04-04T17:00-07:00",
      "location": {
        "name": "Downtown Los Angeles Grand Park",
        "city": "Los Angeles"
      },
      "festival": false
    },
    {
      "title": "Armin van Buuren, Giuseppe Ottaviani, XiJaro & Pitch",
      "date": "2025-04-04T19:00-07:00",
      "location": {
        "name": "Cow Palace",
        "city": "Daly City"
      },
      "festival": false
    },
    {
      "title": "Armin van Buuren",
      "date": "2025-04-19T22:00-04:00",
      "location": {
        "name": "Brooklyn Storehouse",
        "city": "New York City"
      },
      "festival": false
    },
    {
      "title": "Armin van Buuren",
      "date": "2025-05-09T17:00+02:00",
      "location": {
        "name": "The Ostrich - Cape Town",
        "city": "South Africa"
      },
      "festival": false
    },
    {
      "title": "Armin van Buuren",
      "date": "2025-05-10T17:00+02:00",
      "location": {
        "name": "Expo Centre Nasrec",
        "city": "Johannesburg South"
      },
      "festival": false
    },
    {
      "title": "Armin van Buuren, AHEE, ALLEYCVT, AM\u00c9M\u00c9, ARMNHMR, ATLiens, Adam Ten, Ahmed Spins, Alex Chapman, Alignment, Armand Van Helden, Arodes, Avalon, Basstripper, Basswell, BICEP, BIIA, Billy Gillies, Biscits, Brutalismus 3000, CHYL, Caravel, Carlita, Cera Khin, Chase & Status, ChaseWest, Clara Cuv\u00e9, Cloonee, Code Black, D-Sturb, DJ Gigola, Da Tweekaz, DANNY AVILA, Darren Styles, David Forbes, David Rust, Dennis Cruz, Deorro, Disco Lines, Distinct Motive, Drinkurwater, Eric Prydz, Fcukers, Funk Tribu, Fury, Gesaffelstein, Gorgon City, GUDFELLA, HUGEL, Hannah Laing, Hedex, Hot Since 82, I Hate Models, INFEKT, Interplanetary Criminal, INZO, Jackie Hollander, James Hype, Jessica Audiffred, KAMI, Ky William, Kyle Watson, Lake Hills, Lil Texas, Lady Faith, Lavern, Layz, Level Up, Levity, Masha Mar, MPH, MALUGI, Marlon Hoffstadt, Mau P, Mita Gami, Nala, Rusko, SOTA, Dylan Brady, horsegiirL, it's murph",
      "date": "2025-05-16T17:00-07:00",
      "location": {
        "name": "Las Vegas Motor Speedway",
        "city": "Las Vegas"
      },
      "festival": false
    },
    {
      "title": "Armin van Buuren",
      "date": "2025-05-31T17:00+02:00",
      "location": {
        "name": "Nameless Music Festival",
        "city": "Annone Di Brianza"
      },
      "festival": false
    },
    {
      "title": "Armin van Buuren, A.N.I., BENNETT, Bontan, HU, Mausio, Radical Redemption, The Straikerz",
      "date": "2025-06-06T17:00+02:00",
      "location": {
        "name": "Flughafen Memmingen",
        "city": "Memmingerberg"
      },
      "festival": false
    }
  ]
}