{
  "name": "Wildstylez",
  "monthly_listeners": 1075984,
  "followers": 195379,
  "verified": true,
  "top_cities": [
    {
      "city": "Amsterdam",
      "country": "NL",
      "region": "NH",
      "listeners": 104706
    },
    {
      "city": "Rotterdam",
      "country": "NL",
      "region": "ZH",
      "listeners": 77076
    },
    {
      "city": "Utrecht",
      "country": "NL",
      "region": "UT",
      "listeners": 42819
    },
    {
      "city": "Hamburg",
      "country": "DE",
      "region": "HH",
      "listeners": 31370
    },
    {
      "city": "Sydney",
      "country": "AU",
      "region": "NSW",
      "listeners": 28527
    }
  ],
  "social_links": {
    "facebook": "https://facebook.com/wildstylez",
    "instagram": "https://instagram.com/wildstylez",
    "twitter": "https://twitter.com/wildstylez"
  },
  "upcoming_concerts": [
    {
      "title": "Wildstylez, Audiotricz",
      "date": "2025-03-29T15:00+01:00",
      "location": {
        "name": "Hemkade 48",
        "city": "Zaandam"
      },
      "festival": false
    },
    {
      "title": "Wildstylez",
      "date": "2025-03-29T22:00+01:00",
      "location": {
        "name": "Eetcafe De 2 Gemeenten",
        "city": "Irnsum"
      },
      "festival": false
    },
    {
      "title": "Wildstylez, Aversion, Cardination, Collusion, Crypsis, Dj Thera, Dr. Peacock, Devin Wild, Dual Damage, Element, GPF, Hard Destiny, Heavy Resistance, Kruelty, Primeshock, Radical Redemption, Sickmode, The Straikerz",
      "date": "2025-04-11T17:00+02:00",
      "location": {
        "name": "Stichting Vriendenkring Haaren 1940-1945",
        "city": "Haaren"
      },
      "festival": false
    },
    {
      "title": "Wildstylez",
      "date": "2025-05-02T17:00+02:00",
      "location": {
        "name": "NOVA Spektrum",
        "city": "Lillestr\u00f8m"
      },
      "festival": false
    },
    {
      "title": "Wildstylez, Aversion, Cardination, Hard Destiny, Kruelty",
      "date": "2025-05-24T17:00+02:00",
      "location": {
        "name": "Berendonck",
        "city": "Wijchen"
      },
      "festival": false
    },
    {
      "title": "Wildstylez",
      "date": "2025-05-24T20:00+03:00",
      "location": {
        "name": "Helsinki Ice Hall",
        "city": "Helsinki"
      },
      "festival": false
    },
    {
      "title": "Wildstylez",
      "date": "2025-06-08T17:00+02:00",
      "location": {
        "name": "Festivalterrein De Roost",
        "city": "Erp"
      },
      "festival": false
    },
    {
      "title": "Armin van Buuren, GPF, Mausio, Noel Holler, Wildstylez",
      "date": "2025-07-09T17:00+02:00",
      "location": {
        "name": "Flugplatz Neustadt-Glewe",
        "city": "Neustadt-glewe"
      },
      "festival": false
    },
    {
      "title": "Wildstylez",
      "date": "2025-07-12T13:00+09:00",
      "location": {
        "name": "Autotron Rosmalen",
        "city": "Provinsi Papua"
      },
      "festival": false
    },
    {
      "title": "Armin van Buuren, AK SPORTS, Andromedik, Crankdat, DJ Gigola, Dual Damage, John Newman, Pirapus, Sacha Malice, Sonny Fodera, Wildstylez",
      "date": "2025-07-18T17:00+02:00",
      "location": {
        "name": "Provincial Recreation Domain De Schorre",
        "city": "Boom"
      },
      "festival": false
    }
  ]
}