{
  "name": "MEDUZA",
  "monthly_listeners": 14888250,
  "followers": 884236,
  "verified": true,
  "top_cities": [
    {
      "city": "S\u00e3o Paulo",
      "country": "BR",
      "region": "SP",
      "listeners": 335377
    },
    {
      "city": "Sydney",
      "country": "AU",
      "region": "NSW",
      "listeners": 220832
    },
    {
      "city": "Melbourne",
      "country": "AU",
      "region": "VIC",
      "listeners": 176798
    },
    {
      "city": "London",
      "country": "GB",
      "region": "ENG",
      "listeners": 165356
    },
    {
      "city": "Milan",
      "country": "IT",
      "region": "25",
      "listeners": 153070
    }
  ],
  "social_links": {
    "facebook": "https://facebook.com/MeduzaMusic",
    "instagram": "https://instagram.com/meduzamusic",
    "twitter": "https://twitter.com/meduzamusic"
  },
  "upcoming_concerts": [
    {
      "title": "MEDUZA",
      "date": "2025-03-07T21:00+03:00",
      "location": {
        "name": "Klein Ph\u00f6nix",
        "city": "Maslak"
      },
      "festival": false
    },
    {
      "title": "MEDUZA",
      "date": "2025-03-15T22:00+01:00",
      "location": {
        "name": "ROXY Prague",
        "city": "Prague"
      },
      "festival": false
    },
    {
      "title": "MEDUZA",
      "date": "2025-03-22T22:30-07:00",
      "location": {
        "name": "Zouk Nightclub",
        "city": "Las Vegas"
      },
      "festival": false
    },
    {
      "title": "MEDUZA",
      "date": "2025-03-29T12:00-04:00",
      "location": {
        "name": "Hyde Beach",
        "city": "Miami Beach"
      },
      "festival": false
    },
    {
      "title": "MEDUZA, James Hype",
      "date": "2025-04-04T23:00+02:00",
      "location": {
        "name": "Phantom Paris",
        "city": "Paris"
      },
      "festival": false
    },
    {
      "title": "MEDUZA",
      "date": "2025-04-10T20:00-07:00",
      "location": {
        "name": "45 East",
        "city": "Portland"
      },
      "festival": false
    },
    {
      "title": "MEDUZA",
      "date": "2025-04-11T22:30-07:00",
      "location": {
        "name": "Zouk Nightclub",
        "city": "Las Vegas"
      },
      "festival": false
    },
    {
      "title": "MEDUZA",
      "date": "2025-04-12T22:00-05:00",
      "location": {
        "name": "Stereo Live Houston",
        "city": "Houston"
      },
      "festival": false
    },
    {
      "title": "MEDUZA",
      "date": "2025-05-30T22:30-07:00",
      "location": {
        "name": "Zouk Nightclub",
        "city": "Las Vegas"
      },
      "festival": false
    },
    {
      "title": "MEDUZA",
      "date": "2025-06-07T11:00-04:00",
      "location": {
        "name": "Ocean Resort Casino - HQ2 Beachclub",
        "city": "Atlantic City"
      },
      "festival": false
    }
  ]
}