{
  "name": "MORTEN",
  "monthly_listeners": 4108087,
  "followers": 125822,
  "verified": true,
  "top_cities": [
    {
      "city": "Mexico City",
      "country": "MX",
      "region": "CMX",
      "listeners": 51561
    },
    {
      "city": "S\u00e3o Paulo",
      "country": "BR",
      "region": "SP",
      "listeners": 50301
    },
    {
      "city": "Stockholm",
      "country": "SE",
      "region": "AB",
      "listeners": 50024
    },
    {
      "city": "Santiago",
      "country": "CL",
      "region": "RM",
      "listeners": 46634
    },
    {
      "city": "Oslo",
      "country": "NO",
      "region": "03",
      "listeners": 45345
    }
  ],
  "social_links": {
    "facebook": "https://facebook.com/mortenofficial",
    "instagram": "https://instagram.com/mortenofficial",
    "twitter": "https://twitter.com/mortenofficail",
    "wikipedia": "https://en.wikipedia.org/wiki/Morten_Breum"
  },
  "upcoming_concerts": [
    {
      "title": "MORTEN",
      "date": "2025-03-28T17:00-04:00",
      "location": {
        "name": "Bayfront Park",
        "city": "Miami"
      },
      "festival": false
    },
    {
      "title": "MORTEN",
      "date": "2025-03-31T17:00+02:00",
      "location": {
        "name": "Giggijochbahn S\u00f6lden",
        "city": "S\u00f6lden"
      },
      "festival": false
    },
    {
      "title": "MORTEN",
      "date": "2025-04-25T17:00+09:00",
      "location": {
        "name": "INSPIRE Arena",
        "city": "Jung-gu"
      },
      "festival": false
    },
    {
      "title": "MORTEN",
      "date": "2025-05-16T17:00-07:00",
      "location": {
        "name": "EDC Las Vegas",
        "city": "Las Vegas"
      },
      "festival": false
    },
    {
      "title": "ARTBAT, MORTEN, Agents Of Time, Layla Benitez",
      "date": "2025-05-31T22:00-04:00",
      "location": {
        "name": "The Brooklyn Mirage at Avant Gardner",
        "city": "New York"
      },
      "festival": false
    },
    {
      "title": "MORTEN",
      "date": "2025-06-07T13:30+02:00",
      "location": {
        "name": "Horsens Havn",
        "city": "Horsens"
      },
      "festival": false
    },
    {
      "title": "MORTEN",
      "date": "2025-06-20T17:00-04:00",
      "location": {
        "name": "Lansdowne Park",
        "city": "Ottawa"
      },
      "festival": false
    },
    {
      "title": "MORTEN",
      "date": "2025-07-04T17:00+02:00",
      "location": {
        "name": "S\u00f6dra f\u00e4stningsh\u00f6rnan",
        "city": "Varberg"
      },
      "festival": false
    },
    {
      "title": "MORTEN",
      "date": "2025-07-18T17:00+02:00",
      "location": {
        "name": "Boom",
        "city": "Boom"
      },
      "festival": false
    },
    {
      "title": "MORTEN",
      "date": "2025-07-19T14:00+02:00",
      "location": {
        "name": "Weeze Airport",
        "city": "Weeze"
      },
      "festival": false
    }
  ]
}