{
  "name": "Adam Beyer",
  "monthly_listeners": 1378263,
  "followers": 345466,
  "verified": true,
  "top_cities": [
    {
      "city": "Amsterdam",
      "country": "NL",
      "region": "NH",
      "listeners": 21374
    },
    {
      "city": "Berlin",
      "country": "DE",
      "region": "BE",
      "listeners": 20284
    },
    {
      "city": "Stockholm",
      "country": "SE",
      "region": "AB",
      "listeners": 18202
    },
    {
      "city": "Mexico City",
      "country": "MX",
      "region": "CMX",
      "listeners": 17450
    },
    {
      "city": "Brussels",
      "country": "BE",
      "region": "BRU",
      "listeners": 17333
    }
  ],
  "social_links": {
    "facebook": "https://facebook.com/realadambeyer",
    "instagram": "https://instagram.com/realadambeyer",
    "twitter": "https://twitter.com/realadambeyer"
  },
  "upcoming_concerts": [
    {
      "title": "Adam Beyer",
      "date": "2025-03-08T10:00+01:00",
      "location": {
        "name": "Audiodrome Live Club",
        "city": "Torino"
      },
      "festival": false
    },
    {
      "title": "Adam Beyer",
      "date": "2025-03-08T23:00+01:00",
      "location": {
        "name": "Audiodrome Live Club",
        "city": "Torino"
      },
      "festival": false
    },
    {
      "title": "Argy, Fideles, Creeds, Joris Voorn, Adam Beyer",
      "date": "2025-03-14T11:00+01:00",
      "location": {
        "name": "Pas de la Casa",
        "city": "Andorra"
      },
      "festival": false
    },
    {
      "title": "Adam Beyer",
      "date": "2025-03-15T20:30+01:00",
      "location": {
        "name": "Hibernation Festival",
        "city": "Pas De La Casa"
      },
      "festival": false
    },
    {
      "title": "Adam Beyer",
      "date": "2025-03-22T12:00Z",
      "location": {
        "name": "Drumsheds",
        "city": "London"
      },
      "festival": false
    },
    {
      "title": "Adam Beyer, Vintage Culture, Anna Tur, Bart Skils, Chris Avantgarde, Innellea, Kevin de Vries, Korolova, Kasia",
      "date": "2025-03-22T13:00Z",
      "location": {
        "name": "DRUMSHEDS",
        "city": "London"
      },
      "festival": false
    },
    {
      "title": "999999999, Above & Beyond, Adam Beyer, AFROJACK, Alesso, Anyma, Solomun, Armin van Buuren, ARTBAT, Axwell, Boris Brejcha, Carl Cox, Charlotte de Witte, Chase & Status, deadmau5, Pendulum, Eli Brown, Dom Dolla, John Summit, Four Tet, Gesaffelstein, Hardwell, I Hate Models, LSDREAM, CloZee, Martin Garrix, Mau P, Miss Monique, Nero, NGHTMRE, Sullivan King, Richie Hawtin, Subtronics, Ti\u00ebsto, Zedd, Zeds Dead",
      "date": "2025-03-30T12:00-04:00",
      "location": {
        "name": "FPL Solar Amphitheater at Bayfront Park",
        "city": "Miami"
      },
      "festival": false
    },
    {
      "title": "Adam Beyer, Bart Skils",
      "date": "2025-04-04T22:00+02:00",
      "location": {
        "name": "Lofi",
        "city": "Amsterdam"
      },
      "festival": false
    },
    {
      "title": "Adam Beyer",
      "date": "2025-04-05T20:00+02:00",
      "location": {
        "name": "Maimarkthalle",
        "city": "Rheinau"
      },
      "festival": false
    },
    {
      "title": "Adam Beyer",
      "date": "2025-04-19T21:30-03:00",
      "location": {
        "name": "Paseo Parque de la Ciudad",
        "city": "Villa Argentina"
      },
      "festival": false
    }
  ]
}