{
  "name": "David Guetta",
  "monthly_listeners": 74213477,
  "followers": 26888990,
  "verified": true,
  "top_cities": [
    {
      "city": "S\u00e3o Paulo",
      "country": "BR",
      "region": "SP",
      "listeners": 930429
    },
    {
      "city": "Mexico City",
      "country": "MX",
      "region": "CMX",
      "listeners": 916427
    },
    {
      "city": "London",
      "country": "GB",
      "region": "ENG",
      "listeners": 914401
    },
    {
      "city": "Amsterdam",
      "country": "NL",
      "region": "NH",
      "listeners": 881578
    },
    {
      "city": "Sydney",
      "country": "AU",
      "region": "NSW",
      "listeners": 869439
    }
  ],
  "social_links": {
    "facebook": "https://facebook.com/davidguetta",
    "instagram": "https://instagram.com/davidguetta",
    "twitter": "https://twitter.com/davidguetta",
    "wikipedia": "https://en.wikipedia.org/wiki/David_Guetta"
  },
  "upcoming_concerts": [
    {
      "title": "David Guetta",
      "date": "2025-03-21T23:00-04:00",
      "location": {
        "name": "LIV Nightclub Miami",
        "city": "Miami Beach"
      },
      "festival": false
    },
    {
      "title": "David Guetta",
      "date": "2025-03-22T22:30-07:00",
      "location": {
        "name": "LIV Las Vegas",
        "city": "Las Vegas"
      },
      "festival": false
    },
    {
      "title": "David Guetta",
      "date": "2025-03-29T11:30-07:00",
      "location": {
        "name": "LIV Beach",
        "city": "Las Vegas"
      },
      "festival": false
    },
    {
      "title": "David Guetta",
      "date": "2025-04-05T11:30-07:00",
      "location": {
        "name": "LIV Beach",
        "city": "Las Vegas"
      },
      "festival": false
    },
    {
      "title": "David Guetta",
      "date": "2025-04-12T11:30-07:00",
      "location": {
        "name": "LIV Beach",
        "city": "Las Vegas"
      },
      "festival": false
    },
    {
      "title": "David Guetta",
      "date": "2025-04-19T11:30-07:00",
      "location": {
        "name": "LIV Beach",
        "city": "Las Vegas"
      },
      "festival": false
    },
    {
      "title": "David Guetta",
      "date": "2025-04-26T11:30-07:00",
      "location": {
        "name": "LIV Beach",
        "city": "Las Vegas"
      },
      "festival": false
    },
    {
      "title": "David Guetta",
      "date": "2025-05-03T11:30-07:00",
      "location": {
        "name": "LIV Beach",
        "city": "Las Vegas"
      },
      "festival": false
    },
    {
      "title": "David Guetta",
      "date": "2025-05-10T11:30-07:00",
      "location": {
        "name": "LIV Beach",
        "city": "Las Vegas"
      },
      "festival": false
    },
    {
      "title": "David Guetta",
      "date": "2025-05-17T11:30-07:00",
      "location": {
        "name": "LIV Beach",
        "city": "Las Vegas"
      },
      "festival": false
    }
  ]
}