{
  "name": "Justice",
  "monthly_listeners": 10419535,
  "followers": 1337363,
  "verified": true,
  "top_cities": [
    {
      "city": "Los Angeles",
      "country": "US",
      "region": "CA",
      "listeners": 153694
    },
    {
      "city": "Paris",
      "country": "FR",
      "region": "IDF",
      "listeners": 142569
    },
    {
      "city": "London",
      "country": "GB",
      "region": "ENG",
      "listeners": 141518
    },
    {
      "city": "Sydney",
      "country": "AU",
      "region": "NSW",
      "listeners": 119373
    },
    {
      "city": "New York City",
      "country": "US",
      "region": "NY",
      "listeners": 113698
    }
  ],
  "social_links": {
    "facebook": "https://facebook.com/etjusticepourtous",
    "instagram": "https://instagram.com/etjusticepourtous",
    "twitter": "https://twitter.com/JusticePourTous",
    "wikipedia": "https://fr.wikipedia.org/wiki/Justice_(groupe)"
  },
  "upcoming_concerts": [
    {
      "title": "Justice",
      "date": "2025-03-05T20:00-06:00",
      "location": {
        "name": "The Pavilion At Toyota Music Factory",
        "city": "Irving"
      },
      "festival": false
    },
    {
      "title": "Justice",
      "date": "2025-03-06T20:00-06:00",
      "location": {
        "name": "Moody Center",
        "city": "Austin"
      },
      "festival": false
    },
    {
      "title": "M3F 2025",
      "date": "2025-03-08T00:00-07:00",
      "location": {
        "name": "Steele Indian School Park",
        "city": "Phoenix"
      },
      "festival": true
    },
    {
      "title": "Justice",
      "date": "2025-03-12T20:00-06:00",
      "location": {
        "name": "Palacio de los Deportes",
        "city": "Mexico City"
      },
      "festival": false
    },
    {
      "title": "Justice",
      "date": "2025-03-29T00:00-05:00",
      "location": {
        "name": "Parque Metropolitano Sim\u00f3n Bol\u00edvar",
        "city": "Bogot\u00e1"
      },
      "festival": false
    },
    {
      "title": "Justice",
      "date": "2025-04-03T20:00-03:00",
      "location": {
        "name": "Movistar Arena",
        "city": "Buenos Aires"
      },
      "festival": false
    },
    {
      "title": "Justice",
      "date": "2025-04-07T20:00-04:00",
      "location": {
        "name": "Movistar Arena",
        "city": "Santiago"
      },
      "festival": false
    },
    {
      "title": "Kilby Block Party 2025",
      "date": "2025-05-18T12:00-06:00",
      "location": {
        "name": "Utah State Fairpark",
        "city": "Salt Lake City"
      },
      "festival": true
    },
    {
      "title": "Justice",
      "date": "2025-05-21T20:00-07:00",
      "location": {
        "name": "Bill Graham Civic Auditorium",
        "city": "San Francisco"
      },
      "festival": false
    },
    {
      "title": "Justice",
      "date": "2025-05-22T20:00-07:00",
      "location": {
        "name": "Bill Graham Civic Auditorium",
        "city": "San Francisco"
      },
      "festival": false
    }
  ]
}