{
  "name": "Sammy Virji",
  "monthly_listeners": 3780275,
  "followers": 164705,
  "verified": true,
  "top_cities": [
    {
      "city": "London",
      "country": "GB",
      "region": "ENG",
      "listeners": 198174
    },
    {
      "city": "Sydney",
      "country": "AU",
      "region": "NSW",
      "listeners": 129039
    },
    {
      "city": "Melbourne",
      "country": "AU",
      "region": "VIC",
      "listeners": 111185
    },
    {
      "city": "Birmingham",
      "country": "GB",
      "region": "ENG",
      "listeners": 86384
    },
    {
      "city": "Brisbane",
      "country": "AU",
      "region": "QLD",
      "listeners": 78575
    }
  ],
  "social_links": {
    "instagram": "https://instagram.com/sammyvirji/"
  },
  "upcoming_concerts": [
    {
      "title": "Sammy Virji",
      "date": "2025-03-06T21:00+01:00",
      "location": {
        "name": "Pumpehuset",
        "city": "Copenhagen"
      },
      "festival": false
    },
    {
      "title": "Sammy Virji",
      "date": "2025-03-08T23:00+01:00",
      "location": {
        "name": "Prince Charles",
        "city": "Berlin"
      },
      "festival": false
    },
    {
      "title": "Sammy Virji",
      "date": "2025-04-03T21:00-07:00",
      "location": {
        "name": "The Showbox",
        "city": "Seattle"
      },
      "festival": false
    },
    {
      "title": "Sammy Virji",
      "date": "2025-04-04T21:00-07:00",
      "location": {
        "name": "The Showbox",
        "city": "Seattle"
      },
      "festival": false
    },
    {
      "title": "Sammy Virji",
      "date": "2025-04-05T17:30-06:00",
      "location": {
        "name": "Ford Field",
        "city": "Vail"
      },
      "festival": false
    },
    {
      "title": "Sammy Virji",
      "date": "2025-04-18T22:30-07:00",
      "location": {
        "name": "LIV Las Vegas",
        "city": "Las Vegas"
      },
      "festival": false
    },
    {
      "title": "Fatboy Slim, Ryan Elliott, Four Tet, David Vunk, Benny Rodrigues, Blawan, Samuel Deep, Call Super, Mella Dee, Purple Disco Machine, Dan Shake, Chris Stussy, Peach, Sally C, SHERELLE, Sammy Virji, Chlo\u00e9 Robinson, BAKEY, Cincity, Hagop Tchaparian, salute",
      "date": "2025-05-02T16:00+02:00",
      "location": {
        "name": "Onderzeebootloods",
        "city": "Rotterdam"
      },
      "festival": false
    },
    {
      "title": "Sammy Virji",
      "date": "2025-05-02T20:00+02:00",
      "location": {
        "name": "Rotterdamsche Droogdok Maatschappij (RDM)",
        "city": "Pernis"
      },
      "festival": false
    },
    {
      "title": "Four Tet, Sammy Virji, salute, Blawan, SHERELLE, BAKEY, Hagop Tchaparian",
      "date": "2025-05-03T20:00+02:00",
      "location": {
        "name": "De Onderzeebootloods",
        "city": "Rotterdam"
      },
      "festival": false
    },
    {
      "title": "Sammy Virji",
      "date": "2025-05-16T21:00-05:00",
      "location": {
        "name": "SILO",
        "city": "Dallas"
      },
      "festival": false
    }
  ]
}