{
  "name": "Roger Sanchez",
  "monthly_listeners": 1513758,
  "followers": 157200,
  "verified": true,
  "top_cities": [
    {
      "city": "Mexico City",
      "country": "MX",
      "region": "CMX",
      "listeners": 40855
    },
    {
      "city": "London",
      "country": "GB",
      "region": "ENG",
      "listeners": 38625
    },
    {
      "city": "Sydney",
      "country": "AU",
      "region": "NSW",
      "listeners": 28729
    },
    {
      "city": "Melbourne",
      "country": "AU",
      "region": "VIC",
      "listeners": 28083
    },
    {
      "city": "Dublin",
      "country": "IE",
      "region": "L",
      "listeners": 21764
    }
  ],
  "social_links": {
    "facebook": "https://facebook.com/rogersanchezfanpage",
    "instagram": "https://instagram.com/djrogersanchez",
    "twitter": "https://twitter.com/djrogersanchez",
    "wikipedia": "https://en.wikipedia.org/wiki/Roger_Sanchez"
  },
  "upcoming_concerts": [
    {
      "title": "Roger Sanchez",
      "date": "2025-03-21T00:00-04:00",
      "location": {
        "name": "LISTEN",
        "city": "East New York"
      },
      "festival": false
    },
    {
      "title": "Roger Sanchez",
      "date": "2025-03-21T20:00-04:00",
      "location": {
        "name": "LISTEN",
        "city": "New York City"
      },
      "festival": false
    },
    {
      "title": "DJ Chus, David Herrero, Joeski, Technasia, Brian Cid, Roger Sanchez, Kike Roldan, Oscar de Rivera, Patrick M, Oscar de Rivera",
      "date": "2025-03-28T22:00-04:00",
      "location": {
        "name": "MODE",
        "city": "Miami"
      },
      "festival": false
    },
    {
      "title": "Roger Sanchez",
      "date": "2025-04-25T23:30+02:00",
      "location": {
        "name": "Sutton Barcelona",
        "city": "Barcelona"
      },
      "festival": false
    },
    {
      "title": "Roger Sanchez, David Morales, Kevin Saunderson, Ralph Lawson, Graeme Park, Inner City, K-Klass",
      "date": "2025-05-04T12:00+01:00",
      "location": {
        "name": "TESTBED",
        "city": "Ripley"
      },
      "festival": false
    },
    {
      "title": "Roger Sanchez, John Morales, Trimtone",
      "date": "2025-05-04T14:00+01:00",
      "location": {
        "name": "The Yard",
        "city": "Manchester"
      },
      "festival": false
    },
    {
      "title": "Roger Sanchez",
      "date": "2025-05-26T23:00+02:00",
      "location": {
        "name": "Pacha Ibiza",
        "city": "Illes Balears"
      },
      "festival": false
    },
    {
      "title": "Cafe Mambo, Paul Oakenfold, Roger Sanchez, Gok Wan, Judge Jules, Lovely Laura, Cafe Mambo Ibiza",
      "date": "2025-05-31T13:00+01:00",
      "location": {
        "name": "Coombe Abbey",
        "city": "Coventry"
      },
      "festival": false
    },
    {
      "title": "Soul II Soul, Roger Sanchez, Mark Knight, Mas Que Nada Brothers, Jon Pleased Wimmin, Danny Rampling",
      "date": "2025-06-14T13:00+01:00",
      "location": {
        "name": "Brighton Hove Lawns",
        "city": "Brighton"
      },
      "festival": false
    },
    {
      "title": "Groove Armada, Roger Sanchez, David Morales, Greg Wilson, Craig Charles, Graeme Park, Inner City",
      "date": "2025-06-21T13:00+01:00",
      "location": {
        "name": "Walton Hall Gardens",
        "city": "Warrington"
      },
      "festival": false
    }
  ]
}