{
  "name": "Tchami",
  "monthly_listeners": 1546382,
  "followers": 417772,
  "verified": true,
  "top_cities": [
    {
      "city": "Sydney",
      "country": "AU",
      "region": "NSW",
      "listeners": 30680
    },
    {
      "city": "London",
      "country": "GB",
      "region": "ENG",
      "listeners": 28926
    },
    {
      "city": "Los Angeles",
      "country": "US",
      "region": "CA",
      "listeners": 24801
    },
    {
      "city": "Melbourne",
      "country": "AU",
      "region": "VIC",
      "listeners": 21294
    },
    {
      "city": "Brisbane",
      "country": "AU",
      "region": "QLD",
      "listeners": 19217
    }
  ],
  "social_links": {
    "facebook": "https://facebook.com/iamtchami",
    "instagram": "https://instagram.com/tchami",
    "twitter": "https://twitter.com/iamtchami",
    "wikipedia": "https://en.wikipedia.org/wiki/Tchami"
  },
  "upcoming_concerts": [
    {
      "title": "Tchami",
      "date": "2025-03-15T19:00+01:00",
      "location": {
        "name": "Club Sandwich",
        "city": "Montpellier"
      },
      "festival": false
    },
    {
      "title": "Tchami",
      "date": "2025-03-23T18:00-06:00",
      "location": {
        "name": "Lost & Found",
        "city": "El Paso"
      },
      "festival": false
    },
    {
      "title": "Tchami",
      "date": "2025-03-29T21:00-04:00",
      "location": {
        "name": "Elektricity",
        "city": "Pontiac"
      },
      "festival": false
    },
    {
      "title": "Tchami",
      "date": "2025-05-16T22:00-04:00",
      "location": {
        "name": "Celine Orlando",
        "city": "Orlando"
      },
      "festival": false
    },
    {
      "title": "Tchami",
      "date": "2025-05-23T22:00-04:00",
      "location": {
        "name": "The Ritz Ybor",
        "city": "Tampa"
      },
      "festival": false
    },
    {
      "title": "Tchami",
      "date": "2025-05-24T22:00-04:00",
      "location": {
        "name": "Decca Live",
        "city": "Jacksonville"
      },
      "festival": false
    },
    {
      "title": "Tchami",
      "date": "2025-05-30T23:00+02:00",
      "location": {
        "name": "ROCKHAL - CLUB",
        "city": "Avanne-aveney"
      },
      "festival": false
    },
    {
      "title": "Tchami",
      "date": "2025-05-30T22:00+01:00",
      "location": {
        "name": "Rockhal",
        "city": "ESCH-SUR-ALZETTE"
      },
      "festival": false
    }
  ]
}