{
  "name": "Don Diablo",
  "monthly_listeners": 6235385,
  "followers": 1827505,
  "verified": true,
  "top_cities": [
    {
      "city": "Sydney",
      "country": "AU",
      "region": "NSW",
      "listeners": 83760
    },
    {
      "city": "Amsterdam",
      "country": "NL",
      "region": "NH",
      "listeners": 83710
    },
    {
      "city": "Hamburg",
      "country": "DE",
      "region": "HH",
      "listeners": 73339
    },
    {
      "city": "Mexico City",
      "country": "MX",
      "region": "CMX",
      "listeners": 66600
    },
    {
      "city": "Melbourne",
      "country": "AU",
      "region": "VIC",
      "listeners": 64526
    }
  ],
  "social_links": {
    "facebook": "https://facebook.com/OfficialDonDiablo",
    "instagram": "https://instagram.com/dondiablo",
    "wikipedia": "https://en.wikipedia.org/wiki/Don_Diablo"
  },
  "upcoming_concerts": [
    {
      "title": "Don Diablo",
      "date": "2025-04-11T20:00-10:00",
      "location": {
        "name": "Parc Vaira'i",
        "city": "Puna'auia"
      },
      "festival": false
    },
    {
      "title": "Don Diablo",
      "date": "2025-05-03T20:00-04:00",
      "location": {
        "name": "Club H\u00edpico de Santiago",
        "city": "Santiago"
      },
      "festival": false
    },
    {
      "title": "Don Diablo",
      "date": "2025-05-16T21:00+02:00",
      "location": {
        "name": "Duplex",
        "city": "Prague"
      },
      "festival": false
    },
    {
      "title": "Don Diablo",
      "date": "2025-05-31T17:00+02:00",
      "location": {
        "name": "Nameless Music Festival",
        "city": "Annone Di Brianza"
      },
      "festival": false
    },
    {
      "title": "Don Diablo",
      "date": "2025-06-26T20:00+02:00",
      "location": {
        "name": "Calahorra",
        "city": "Calahorra"
      },
      "festival": false
    },
    {
      "title": "Don Diablo",
      "date": "2025-07-09T20:00-04:00",
      "location": {
        "name": "Qu\u00e9bec",
        "city": "Qu\u00e9bec"
      },
      "festival": false
    },
    {
      "title": "Don Diablo",
      "date": "2025-08-01T20:00+02:00",
      "location": {
        "name": "Podczele II",
        "city": "Ko\u0142obrzeg"
      },
      "festival": false
    },
    {
      "title": "Don Diablo",
      "date": "2025-08-07T17:00+03:00",
      "location": {
        "name": "Untold Festival",
        "city": "Cluj-napoca"
      },
      "festival": false
    }
  ]
}