{
  "name": "FISHER",
  "monthly_listeners": 16648010,
  "followers": 1077508,
  "verified": true,
  "top_cities": [
    {
      "city": "Sydney",
      "country": "AU",
      "region": "NSW",
      "listeners": 351032
    },
    {
      "city": "Melbourne",
      "country": "AU",
      "region": "VIC",
      "listeners": 295740
    },
    {
      "city": "Mexico City",
      "country": "MX",
      "region": "CMX",
      "listeners": 262116
    },
    {
      "city": "London",
      "country": "GB",
      "region": "ENG",
      "listeners": 254130
    },
    {
      "city": "Santiago",
      "country": "CL",
      "region": "RM",
      "listeners": 244078
    }
  ],
  "social_links": {
    "facebook": "https://facebook.com/followthefishtv.tv",
    "instagram": "https://instagram.com/followthefishtv",
    "twitter": "https://twitter.com/followthefishtv"
  },
  "upcoming_concerts": [
    {
      "title": "FISHER, Paco Osuna, SOSA, Little Fritter",
      "date": "2025-03-26T23:00-04:00",
      "location": {
        "name": "Club Space Miami",
        "city": "Miami"
      },
      "festival": false
    },
    {
      "title": "FISHER",
      "date": "2025-04-11T20:00-05:00",
      "location": {
        "name": "The Pinnacle",
        "city": "Nashville"
      },
      "festival": false
    },
    {
      "title": "Breakaway Music Festival Tampa 2025",
      "date": "2025-04-25T17:00-04:00",
      "location": {
        "name": "Raymond James Stadium North Grounds",
        "city": "Tampa"
      },
      "festival": true
    },
    {
      "title": "Ubbi Dubbi 2025",
      "date": "2025-04-26T00:00-05:00",
      "location": {
        "name": "Panther Island",
        "city": "Fort Worth"
      },
      "festival": true
    },
    {
      "title": "What So Not, AHEE, BEAUZ, Basstripper, BRUX, Common Creation, Dead X, Dombresky, Dr. Fresch, EDDIE, FISHER, GorillaT, GRAVEDGR, HVDES, INZO, JSTJR, Lil Texas, Level Up, Neek, Neotek, Patrick Topping, Riot Ten, Skybreak, SKYLER, SOTA, Subtronics, Sunday Scaries, WHIPPED CREAM, WonkyWilla, Yosuf, zoska",
      "date": "2025-04-27T17:00-05:00",
      "location": {
        "name": "Panther Island Pavilion",
        "city": "Fort Worth"
      },
      "festival": false
    },
    {
      "title": "FISHER",
      "date": "2025-05-26T18:00-06:00",
      "location": {
        "name": "16th & Welton",
        "city": "Denver"
      },
      "festival": false
    },
    {
      "title": "KOMPROMAT, MEUTE, FISHER, Zaho de Sagazan, Werenoi, Lamomali",
      "date": "2025-06-28T14:00+02:00",
      "location": {
        "name": "Hippodrome de Longchamp",
        "city": "PARIS"
      },
      "festival": false
    },
    {
      "title": "Hindi Zahra, Feder, Gazo, Ril\u00e8s, AFROJACK, I Hate Models, Jungeli, Kybba, J Balvin, DJ Snake, Damso, Black Eyed Peas, Biga*Ranx, Yseult, Hoshi, The Black Keys, FISHER, Jersey, Teletech, Basswell, OMAKS, CARAVEL, Alex Farell, B2B, SIKOTI, Part Time Killer, Bella Claxton, Faster Horses",
      "date": "2025-07-03T12:00+02:00",
      "location": {
        "name": "PLEIN AIR",
        "city": "MARMANDE"
      },
      "festival": false
    },
    {
      "title": "FISHER, Stormzy, Kygo, TIX, Kamelen, Bausa, Ari Bajgora, Chase & Status, Ka2, Victoria Nadine, Rakkere, Moyka",
      "date": "2025-07-04T12:00+02:00",
      "location": {
        "name": "Bystranda",
        "city": "Kristiansand S"
      },
      "festival": false
    },
    {
      "title": "Biga*Ranx, Damso, Hoshi, MEUTE, Black Eyed Peas, DJ Snake, FISHER, LANDMVRKS, Jersey, Wallace Cleaver, NEMZZ",
      "date": "2025-07-05T00:00+02:00",
      "location": {
        "name": "PLEIN AIR",
        "city": "MARMANDE"
      },
      "festival": false
    }
  ]
}