{
  "name": "Dash Berlin",
  "monthly_listeners": 4529646,
  "followers": 572590,
  "verified": true,
  "top_cities": [
    {
      "city": "Mexico City",
      "country": "MX",
      "region": "CMX",
      "listeners": 100134
    },
    {
      "city": "Jakarta",
      "country": "ID",
      "region": "JK",
      "listeners": 58874
    },
    {
      "city": "Sydney",
      "country": "AU",
      "region": "NSW",
      "listeners": 57326
    },
    {
      "city": "Amsterdam",
      "country": "NL",
      "region": "NH",
      "listeners": 46906
    },
    {
      "city": "Melbourne",
      "country": "AU",
      "region": "VIC",
      "listeners": 44340
    }
  ],
  "social_links": {
    "facebook": "https://facebook.com/dashberlinworld",
    "instagram": "https://instagram.com/dashberlin",
    "twitter": "https://twitter.com/dashberlin"
  },
  "upcoming_concerts": [
    {
      "title": "Dash Berlin",
      "date": "2025-03-08T00:00+08:00",
      "location": {
        "name": "BOOMERANG \u2022 The Illusionist",
        "city": "Central"
      },
      "festival": false
    },
    {
      "title": "Dash Berlin",
      "date": "2025-04-25T00:00-07:00",
      "location": {
        "name": "Harbour Centre Vancouver",
        "city": "Vancouver"
      },
      "festival": false
    },
    {
      "title": "Dash Berlin",
      "date": "2025-04-26T00:00-04:00",
      "location": {
        "name": "REBEL",
        "city": "Toronto"
      },
      "festival": false
    },
    {
      "title": "Dash Berlin",
      "date": "2025-05-03T00:00+08:00",
      "location": {
        "name": "Mandala Beach Club",
        "city": "Lombok"
      },
      "festival": false
    },
    {
      "title": "Dash Berlin",
      "date": "2025-05-11T17:00+02:00",
      "location": {
        "name": "UNO Malta",
        "city": "Attard"
      },
      "festival": false
    },
    {
      "title": "Dash Berlin",
      "date": "2025-06-13T00:00+03:00",
      "location": {
        "name": "Helsinki Ice Hall",
        "city": "Helsinki"
      },
      "festival": false
    },
    {
      "title": "Dash Berlin, MR.BLACK",
      "date": "2025-06-20T17:00+02:00",
      "location": {
        "name": "PREZERO ARENA GLIWICE",
        "city": "Gliwice"
      },
      "festival": false
    },
    {
      "title": "Dash Berlin",
      "date": "2025-08-08T00:00+03:00",
      "location": {
        "name": "Himos Areena",
        "city": "Pohjois-himos"
      },
      "festival": false
    },
    {
      "title": "Dash Berlin",
      "date": "2025-08-09T00:00+02:00",
      "location": {
        "name": "Chmielniki 47",
        "city": "Chmielniki"
      },
      "festival": false
    },
    {
      "title": "Dash Berlin",
      "date": "2025-08-29T00:00+02:00",
      "location": {
        "name": "Park I\u0142owa",
        "city": "I\u0142owa"
      },
      "festival": false
    }
  ]
}