{
  "name": "MK",
  "monthly_listeners": 7457964,
  "followers": 313915,
  "verified": true,
  "top_cities": [
    {
      "city": "London",
      "country": "GB",
      "region": "ENG",
      "listeners": 299426
    },
    {
      "city": "Sydney",
      "country": "AU",
      "region": "NSW",
      "listeners": 237260
    },
    {
      "city": "Melbourne",
      "country": "AU",
      "region": "VIC",
      "listeners": 208411
    },
    {
      "city": "Dublin",
      "country": "IE",
      "region": "L",
      "listeners": 187497
    },
    {
      "city": "Birmingham",
      "country": "GB",
      "region": "ENG",
      "listeners": 137306
    }
  ],
  "social_links": {
    "facebook": "https://facebook.com/marckinchen",
    "instagram": "https://instagram.com/marckinchen",
    "twitter": "https://twitter.com/marckinchen"
  },
  "upcoming_concerts": [
    {
      "title": "MK, LF SYSTEM, Eats Everything, SIDEPIECE, Martin Ikin",
      "date": "2025-03-28T12:00-04:00",
      "location": {
        "name": "Surfcomber Hotel",
        "city": "Miami Beach"
      },
      "festival": false
    },
    {
      "title": "MK",
      "date": "2025-04-24T21:00+10:00",
      "location": {
        "name": "The Timber Yard",
        "city": "Port Melbourne"
      },
      "festival": false
    },
    {
      "title": "MK",
      "date": "2025-04-25T21:00+08:00",
      "location": {
        "name": "Railway Hotel",
        "city": "North Fremantle"
      },
      "festival": false
    },
    {
      "title": "MK",
      "date": "2025-04-26T20:00+10:00",
      "location": {
        "name": "Roundhouse",
        "city": "Sydney"
      },
      "festival": false
    },
    {
      "title": "Movement Music Festival 2025",
      "date": "2025-05-24T00:00-04:00",
      "location": {
        "name": "Hart Plaza",
        "city": "Detroit"
      },
      "festival": true
    },
    {
      "title": "SLANDER, Yellow Claw, Bou, Le Youth, MK, AHEE, ARMNHMR, BIIANCO, Bassrush, Basstripper, Biscits, Cassian, Coco & Breezy, D.O.D, DANNY AVILA, Gene Farris, Godlands, Green Velvet, Hedex, Jackie Hollander, James Hype, Jessica Audiffred, Level Up, MOONLGHT, MPH, Matroda, MEDUZA, Mersiv, Netsky, Nikita, the Wicked, Odd Mob, OMNOM, Ravenscoon, San Pacho, SIDEPIECE, SampliFire, Subtronics, Tom & Collins, TroyBoi, Virtual Riot, Walker & Royce, Wilkinson, $wooli, YDG, Zen Selekta, Martin Ikin, \u00c6ON:MODE",
      "date": "2025-06-07T17:00-05:00",
      "location": {
        "name": "Huntington Bank Pavilion at Northerly Island",
        "city": "Chicago"
      },
      "festival": false
    },
    {
      "title": "Marc Kinchen, LOVRA, MK",
      "date": "2025-07-05T22:00+02:00",
      "location": {
        "name": "Ritter Butzke",
        "city": "Berlin"
      },
      "festival": false
    },
    {
      "title": "Sonny Fodera, MK, Armand Van Helden, Flight Facilities, Hitty, Jazzy, Danny Howard",
      "date": "2025-07-12T12:00+01:00",
      "location": {
        "name": "Silverworks Island ",
        "city": "London"
      },
      "festival": false
    }
  ]
}