{
  "name": "Dom Dolla",
  "monthly_listeners": 9180235,
  "followers": 528800,
  "verified": true,
  "top_cities": [
    {
      "city": "Sydney",
      "country": "AU",
      "region": "NSW",
      "listeners": 435383
    },
    {
      "city": "Melbourne",
      "country": "AU",
      "region": "VIC",
      "listeners": 404013
    },
    {
      "city": "Brisbane",
      "country": "AU",
      "region": "QLD",
      "listeners": 272860
    },
    {
      "city": "Perth",
      "country": "AU",
      "region": "WA",
      "listeners": 177680
    },
    {
      "city": "London",
      "country": "GB",
      "region": "ENG",
      "listeners": 139091
    }
  ],
  "social_links": {
    "facebook": "https://facebook.com/domdollamusic",
    "instagram": "https://instagram.com/domdolla",
    "twitter": "https://twitter.com/domdolla"
  },
  "upcoming_concerts": [
    {
      "title": "Dom Dolla",
      "date": "2025-03-07T19:00-05:00",
      "location": {
        "name": "Madison Square Garden",
        "city": "New York"
      },
      "festival": false
    },
    {
      "title": "Dom Dolla, Fcukers, Tiga",
      "date": "2025-03-08T22:00-05:00",
      "location": {
        "name": "Brooklyn Storehouse",
        "city": "New York City"
      },
      "festival": false
    },
    {
      "title": "Dom Dolla",
      "date": "2025-03-15T22:30-07:00",
      "location": {
        "name": "LIV Las Vegas",
        "city": "Las Vegas"
      },
      "festival": false
    },
    {
      "title": "Dom Dolla",
      "date": "2025-03-21T22:30-07:00",
      "location": {
        "name": "LIV Beach Las Vegas",
        "city": "Las Vegas"
      },
      "festival": false
    },
    {
      "title": "999999999, Above & Beyond, Adam Beyer, AFROJACK, Alesso, Anyma, Solomun, Armin van Buuren, ARTBAT, Axwell, Boris Brejcha, Carl Cox, Charlotte de Witte, Chase & Status, deadmau5, Pendulum, Eli Brown, Dom Dolla, John Summit, Four Tet, Gesaffelstein, Hardwell, I Hate Models, LSDREAM, CloZee, Martin Garrix, Mau P, Miss Monique, Nero, NGHTMRE, Sullivan King, Richie Hawtin, Subtronics, Ti\u00ebsto, Zedd, Zeds Dead",
      "date": "2025-03-30T12:00-04:00",
      "location": {
        "name": "FPL Solar Amphitheater at Bayfront Park",
        "city": "Miami"
      },
      "festival": false
    },
    {
      "title": "Dom Dolla",
      "date": "2025-04-25T17:00+09:00",
      "location": {
        "name": "Seoul South Korea",
        "city": "Chungcheongnam-do"
      },
      "festival": false
    },
    {
      "title": "Dom Dolla",
      "date": "2025-05-03T22:30-07:00",
      "location": {
        "name": "LIV Las Vegas",
        "city": "Las Vegas"
      },
      "festival": false
    },
    {
      "title": "Dom Dolla",
      "date": "2025-05-09T17:00-06:00",
      "location": {
        "name": "Civic Center Park - Denver",
        "city": "Denver"
      },
      "festival": false
    },
    {
      "title": "Dom Dolla",
      "date": "2025-05-09T21:00-06:00",
      "location": {
        "name": "Civic Center Park",
        "city": "Denver"
      },
      "festival": false
    },
    {
      "title": "Dom Dolla",
      "date": "2025-05-10T19:00-06:00",
      "location": {
        "name": "Civic Center Park",
        "city": "Denver"
      },
      "festival": false
    }
  ]
}