{
  "name": "Kygo",
  "monthly_listeners": 31885253,
  "followers": 8578203,
  "verified": true,
  "top_cities": [
    {
      "city": "Sydney",
      "country": "AU",
      "region": "NSW",
      "listeners": 446105
    },
    {
      "city": "Mexico City",
      "country": "MX",
      "region": "CMX",
      "listeners": 416137
    },
    {
      "city": "Amsterdam",
      "country": "NL",
      "region": "NH",
      "listeners": 368858
    },
    {
      "city": "London",
      "country": "GB",
      "region": "ENG",
      "listeners": 357838
    },
    {
      "city": "Stockholm",
      "country": "SE",
      "region": "AB",
      "listeners": 355604
    }
  ],
  "social_links": {},
  "upcoming_concerts": [
    {
      "title": "Kygo",
      "date": "2025-05-02T20:00-04:00",
      "location": {
        "name": "Seminole Hard Rock Hotel & Casino - Hollywood, FL",
        "city": "Hollywood"
      },
      "festival": false
    },
    {
      "title": "Kygo",
      "date": "2025-05-03T11:00-07:00",
      "location": {
        "name": "Palm Tree Beach Club",
        "city": "Las Vegas Convention Center"
      },
      "festival": false
    },
    {
      "title": "Kygo, Eric Prydz, Nora En Pure, San Holo, Night Tales, SWAYL\u00d3, American Composers Orchestra",
      "date": "2025-05-09T00:00-10:00",
      "location": {
        "name": "Turtle Bay Resort",
        "city": "Kahuku"
      },
      "festival": false
    },
    {
      "title": "Kygo, American Composers Orchestra, Eric Prydz, Night Tales, Nora En Pure, San Holo, SWAYL\u00d3",
      "date": "2025-05-10T00:00-10:00",
      "location": {
        "name": "Turtle Bay Resort",
        "city": "Kahuku"
      },
      "festival": false
    },
    {
      "title": "Kygo",
      "date": "2025-05-17T11:00-07:00",
      "location": {
        "name": "Palm Tree Beach Club",
        "city": "Las Vegas Convention Center"
      },
      "festival": false
    },
    {
      "title": "Kygo",
      "date": "2025-05-24T11:00-07:00",
      "location": {
        "name": "Palm Tree Beach Club",
        "city": "Las Vegas Convention Center"
      },
      "festival": false
    },
    {
      "title": "Kygo",
      "date": "2025-05-30T20:00+04:00",
      "location": {
        "name": "Coca-Cola Arena",
        "city": "Dubai"
      },
      "festival": false
    },
    {
      "title": "FISHER, Stormzy, Kygo, TIX, Kamelen, Bausa, Ari Bajgora, Chase & Status, Ka2, Victoria Nadine, Rakkere, Moyka",
      "date": "2025-07-04T12:00+02:00",
      "location": {
        "name": "Bystranda",
        "city": "Kristiansand S"
      },
      "festival": false
    },
    {
      "title": "Kygo",
      "date": "2025-07-05T11:00-07:00",
      "location": {
        "name": "Palm Tree Beach Club",
        "city": "Las Vegas Convention Center"
      },
      "festival": false
    },
    {
      "title": "Kygo",
      "date": "2025-07-07T17:00-06:00",
      "location": {
        "name": "Cowboys Park",
        "city": "Calgary"
      },
      "festival": false
    }
  ]
}