{
  "name": "CamelPhat",
  "monthly_listeners": 5552719,
  "followers": 485539,
  "verified": true,
  "top_cities": [
    {
      "city": "London",
      "country": "GB",
      "region": "ENG",
      "listeners": 126665
    },
    {
      "city": "Sydney",
      "country": "AU",
      "region": "NSW",
      "listeners": 107801
    },
    {
      "city": "Melbourne",
      "country": "AU",
      "region": "VIC",
      "listeners": 98806
    },
    {
      "city": "S\u00e3o Paulo",
      "country": "BR",
      "region": "SP",
      "listeners": 85404
    },
    {
      "city": "Mexico City",
      "country": "MX",
      "region": "CMX",
      "listeners": 81503
    }
  ],
  "social_links": {
    "facebook": "https://facebook.com/Camelphat",
    "instagram": "https://instagram.com/Camelphatmusic",
    "twitter": "https://twitter.com/Camelphat"
  },
  "upcoming_concerts": [
    {
      "title": "CamelPhat",
      "date": "2025-03-21T21:30-04:00",
      "location": {
        "name": "The Ave Live",
        "city": "Philadelphia"
      },
      "festival": false
    },
    {
      "title": "CamelPhat",
      "date": "2025-03-22T22:00-05:00",
      "location": {
        "name": "Stereo Live Houston",
        "city": "Houston"
      },
      "festival": false
    },
    {
      "title": "CamelPhat, Innellea, Kevin de Vries, Henri Bergmann, Layla Benitez",
      "date": "2025-03-29T23:00-04:00",
      "location": {
        "name": "Club Space Miami",
        "city": "Miami"
      },
      "festival": false
    },
    {
      "title": "CamelPhat, Adam Ten",
      "date": "2025-04-11T19:00+04:00",
      "location": {
        "name": "PACHA ICONS",
        "city": "\u062f\u0628\u064a"
      },
      "festival": false
    },
    {
      "title": "CamelPhat, Argy, Rivo, Reinier Zonneveld",
      "date": "2025-04-18T12:00+02:00",
      "location": {
        "name": "Salastrains",
        "city": "St. Moritz"
      },
      "festival": false
    },
    {
      "title": "CamelPhat",
      "date": "2025-04-19T14:00+01:00",
      "location": {
        "name": "Blackstone Street Warehouse",
        "city": "Liverpool"
      },
      "festival": false
    },
    {
      "title": "CamelPhat",
      "date": "2025-04-20T14:00+01:00",
      "location": {
        "name": "Blackstone Street Warehouse",
        "city": "Liverpool"
      },
      "festival": false
    },
    {
      "title": "Black Coffee, CamelPhat, Peggy Gou",
      "date": "2025-05-09T00:00-05:00",
      "location": {
        "name": "The Concourse Project",
        "city": "Austin"
      },
      "festival": false
    },
    {
      "title": "Black Coffee, CamelPhat, Peggy Gou",
      "date": "2025-05-10T00:00-05:00",
      "location": {
        "name": "The Concourse Project",
        "city": "Austin"
      },
      "festival": false
    },
    {
      "title": "CamelPhat, \u00c2me, Trikk, Deer Jade",
      "date": "2025-05-20T23:00+02:00",
      "location": {
        "name": "Pacha Ibiza",
        "city": "Illes Balears"
      },
      "festival": false
    }
  ]
}