{
  "name": "Vintage Culture",
  "monthly_listeners": 8547142,
  "followers": 1914550,
  "verified": true,
  "top_cities": [
    {
      "city": "S\u00e3o Paulo",
      "country": "BR",
      "region": "SP",
      "listeners": 530340
    },
    {
      "city": "Rio de Janeiro",
      "country": "BR",
      "region": "RJ",
      "listeners": 188028
    },
    {
      "city": "Curitiba",
      "country": "BR",
      "region": "PR",
      "listeners": 183717
    },
    {
      "city": "Belo Horizonte",
      "country": "BR",
      "region": "MG",
      "listeners": 179970
    },
    {
      "city": "Campinas",
      "country": "BR",
      "region": "SP",
      "listeners": 135584
    }
  ],
  "social_links": {
    "facebook": "https://facebook.com/vintageculturemusic",
    "instagram": "https://instagram.com/vintageculture",
    "twitter": "https://twitter.com/VintageCulture"
  },
  "upcoming_concerts": [
    {
      "title": "Vintage Culture",
      "date": "2025-03-07T22:00-03:00",
      "location": {
        "name": "Museu do Amanh\u00e3",
        "city": "Rio De Janeiro"
      },
      "festival": false
    },
    {
      "title": "Vintage Culture, Filipe Ret",
      "date": "2025-03-08T19:00-03:00",
      "location": {
        "name": "Sambadrome Marqu\u00eas de Sapuca\u00ed",
        "city": "Rio De Janeiro"
      },
      "festival": false
    },
    {
      "title": "Vintage Culture",
      "date": "2025-03-13T22:00+09:00",
      "location": {
        "name": "Niseko Village",
        "city": "\u867b\u7530\u90e1\u30cb\u30bb\u30b3\u753a"
      },
      "festival": false
    },
    {
      "title": "Studio Apartment, Vintage Culture",
      "date": "2025-03-14T23:00+09:00",
      "location": {
        "name": "ZEROTOKYO",
        "city": "\u65b0\u5bbf\u533a"
      },
      "festival": false
    },
    {
      "title": "Vintage Culture",
      "date": "2025-03-15T17:00+01:00",
      "location": {
        "name": "Alpe d'Huez",
        "city": "Alpe D\u2019huez"
      },
      "festival": false
    },
    {
      "title": "Adam Beyer, Vintage Culture, Anna Tur, Bart Skils, Chris Avantgarde, Innellea, Kevin de Vries, Korolova, Kasia",
      "date": "2025-03-22T13:00Z",
      "location": {
        "name": "The Drumsheds",
        "city": "London"
      },
      "festival": false
    },
    {
      "title": "Vintage Culture, AnnA, Doozie",
      "date": "2025-03-29T23:00+01:00",
      "location": {
        "name": "Phantom Paris",
        "city": "Paris"
      },
      "festival": false
    },
    {
      "title": "Kapibara, Vintage Culture",
      "date": "2025-04-04T23:00+02:00",
      "location": {
        "name": "Fuse",
        "city": "Brussels"
      },
      "festival": false
    },
    {
      "title": "Still Woozy, Austin Millz, Beth Gibbons, Chris Lorenzo, DJ Gigola, Disco Lines, Djo, Durty, Eli Brown, Glass Beams, Glixen, The Go-Go's, Judeline, Linska, Mau P, Miluhska, Moon Boots, Nazzy the Mic, Parcels, SAINt JHN, Sara Landry, Shermanology, TOPS, Tyla, Vintage Culture, d4vd, Eyedress, Ginger Root, underscores",
      "date": "2025-04-11T19:00-07:00",
      "location": {
        "name": "Empire Polo Club",
        "city": "Indio"
      },
      "festival": false
    },
    {
      "title": "Vintage Culture",
      "date": "2025-04-17T22:00-03:00",
      "location": {
        "name": "Porto de Santos",
        "city": "Santos"
      },
      "festival": false
    }
  ]
}