{
  "name": "Ferry Corsten",
  "monthly_listeners": 1327979,
  "followers": 281952,
  "verified": true,
  "top_cities": [
    {
      "city": "London",
      "country": "GB",
      "region": "ENG",
      "listeners": 35026
    },
    {
      "city": "Amsterdam",
      "country": "NL",
      "region": "NH",
      "listeners": 25127
    },
    {
      "city": "Sydney",
      "country": "AU",
      "region": "NSW",
      "listeners": 20780
    },
    {
      "city": "Melbourne",
      "country": "AU",
      "region": "VIC",
      "listeners": 20355
    },
    {
      "city": "Glasgow",
      "country": "GB",
      "region": "SCT",
      "listeners": 19384
    }
  ],
  "social_links": {
    "facebook": "https://facebook.com/ferrycorsten",
    "instagram": "https://instagram.com/ferrycorsten",
    "twitter": "https://twitter.com/ferrycorsten"
  },
  "upcoming_concerts": [
    {
      "title": "Ferry Corsten, Eelke Kleijn, Giuseppe Ottaviani, Cosmic Gate, Aly & Fila, Anthony Attalla, Simon Doty, Luccio, Carlo Lio, Adapter, Mat.Joe, FREAK ON, Guz, Infected Mushroom, Galo",
      "date": "2025-03-26T16:00-04:00",
      "location": {
        "name": "La Otra Wynwood",
        "city": "Miami"
      },
      "festival": false
    },
    {
      "title": "Ferry Corsten, Gabriel & Dresden, Aly & Fila, Luccio",
      "date": "2025-03-28T23:00-04:00",
      "location": {
        "name": "La Otra Wynwood",
        "city": "Miami"
      },
      "festival": false
    },
    {
      "title": "Ferry Corsten",
      "date": "2025-04-26T13:00+01:00",
      "location": {
        "name": "HERE at Outernet",
        "city": "London"
      },
      "festival": false
    },
    {
      "title": "Ferry Corsten",
      "date": "2025-05-08T12:00+02:00",
      "location": {
        "name": "Uno Malta",
        "city": "Malta"
      },
      "festival": false
    },
    {
      "title": "Ferry Corsten",
      "date": "2025-05-24T22:00-07:00",
      "location": {
        "name": "Avalon Hollywood",
        "city": "Los Angeles"
      },
      "festival": false
    },
    {
      "title": "Ferry Corsten, Mike Saint-Jules",
      "date": "2025-05-25T14:00-04:00",
      "location": {
        "name": "The Roof at Superior Ingredients",
        "city": "New York"
      },
      "festival": false
    },
    {
      "title": "Trance In The Woods 2025",
      "date": "2025-06-06T18:00+01:00",
      "location": {
        "name": "Elvastone Castle Country Park",
        "city": "Derby"
      },
      "festival": true
    },
    {
      "title": "Ferry Corsten, Ben Gold, Billy Gillies, Bryan Kearney, Giuseppe Ottaviani, Mauro Picotto, shugz, Symmetrik, Will Atkinson",
      "date": "2025-06-07T12:00+01:00",
      "location": {
        "name": "Elvaston Castle Country Park",
        "city": "Derby"
      },
      "festival": false
    }
  ]
}