{
  "name": "Zedd",
  "monthly_listeners": 15950992,
  "followers": 6045009,
  "verified": true,
  "top_cities": [
    {
      "city": "Jakarta",
      "country": "ID",
      "region": "JK",
      "listeners": 282379
    },
    {
      "city": "Sydney",
      "country": "AU",
      "region": "NSW",
      "listeners": 236052
    },
    {
      "city": "Melbourne",
      "country": "AU",
      "region": "VIC",
      "listeners": 187872
    },
    {
      "city": "Los Angeles",
      "country": "US",
      "region": "CA",
      "listeners": 174329
    },
    {
      "city": "Quezon City",
      "country": "PH",
      "region": "00",
      "listeners": 151511
    }
  ],
  "social_links": {
    "facebook": "https://facebook.com/zedd",
    "instagram": "https://instagram.com/zedd",
    "twitter": "https://twitter.com/zedd",
    "wikipedia": "https://en.wikipedia.org/wiki/Zedd"
  },
  "upcoming_concerts": [
    {
      "title": "Zedd",
      "date": "2025-03-06T20:00+05:30",
      "location": {
        "name": "Manpho Convention Center",
        "city": "Bengaluru"
      },
      "festival": false
    },
    {
      "title": "Zedd",
      "date": "2025-03-07T20:00+05:30",
      "location": {
        "name": "Huda GymKhana Sector 29",
        "city": "National Capital Territory Of Delhi"
      },
      "festival": false
    },
    {
      "title": "999999999, Above & Beyond, Adam Beyer, AFROJACK, Alesso, Anyma, Solomun, Armin van Buuren, ARTBAT, Axwell, Boris Brejcha, Carl Cox, Charlotte de Witte, Chase & Status, deadmau5, Pendulum, Eli Brown, Dom Dolla, John Summit, Four Tet, Gesaffelstein, Hardwell, I Hate Models, LSDREAM, CloZee, Martin Garrix, Mau P, Miss Monique, Nero, NGHTMRE, Sullivan King, Richie Hawtin, Subtronics, Ti\u00ebsto, Zedd, Zeds Dead",
      "date": "2025-03-30T12:00-04:00",
      "location": {
        "name": "FPL Solar Amphitheater at Bayfront Park",
        "city": "Miami"
      },
      "festival": false
    },
    {
      "title": "Breakaway Music Festival Dallas 2025",
      "date": "2025-04-05T16:00-05:00",
      "location": {
        "name": "Fair Park",
        "city": "Dallas"
      },
      "festival": true
    },
    {
      "title": "Breakaway Music Festival Atlanta 2025",
      "date": "2025-05-16T00:00-04:00",
      "location": {
        "name": "Center Parc Credit Union Stadium Victory Plaza",
        "city": "Atlanta"
      },
      "festival": true
    },
    {
      "title": "FVDED In the Park 2025",
      "date": "2025-07-05T00:00-07:00",
      "location": {
        "name": "Holland Park",
        "city": "Surrey"
      },
      "festival": true
    },
    {
      "title": "Zedd",
      "date": "2025-07-06T18:00-06:00",
      "location": {
        "name": "Badland's Tent",
        "city": "Calgary"
      },
      "festival": false
    },
    {
      "title": "Chris Lake, deadmau5, Excision, Galantis, Kaskade, Louis The Child, Of The Trees, Rezz, RL Grime, Seven Lions, Sofi Tukker, Timmy Trumpet, SVDDEN DEATH, Zedd, Zeds Dead, Apashe, Benny Benassi, Detox Unit, Kai Wachi, KREAM, LP Giobbi, NGHTMRE, Dimension, PEEKABOO, Caspa, Ray Volpe, Tinlicker, Wax Motif, BONNIE X CLYDE, Distinct Motive, Heyz, Ian Asher, Jon Casey, Joshwa, Juelz, Kaleena Zanders, Lil Texas, MC4D, Skepsis, Westend, YOOKiE, Audiofreq, Caster, Control Freak, Darksiderz, Dennett, Muzz, Kreation, Dogma, Prosecute, Pyke, Rohaan, Seth David, Sherm, The Stooges, VKTM, Pyke, Taiki Nulight",
      "date": "2025-08-29T00:00-05:00",
      "location": {
        "name": "SeatGeek Stadium",
        "city": "Bridgeview"
      },
      "festival": false
    }
  ]
}