{
  "name": "W&W",
  "monthly_listeners": 12707970,
  "followers": 888212,
  "verified": true,
  "top_cities": [
    {
      "city": "Hamburg",
      "country": "DE",
      "region": "HH",
      "listeners": 249246
    },
    {
      "city": "Amsterdam",
      "country": "NL",
      "region": "NH",
      "listeners": 208975
    },
    {
      "city": "Munich",
      "country": "DE",
      "region": "BY",
      "listeners": 189297
    },
    {
      "city": "Berlin",
      "country": "DE",
      "region": "BE",
      "listeners": 175510
    },
    {
      "city": "Frankfurt am Main",
      "country": "DE",
      "region": "HE",
      "listeners": 173632
    }
  ],
  "social_links": {
    "facebook": "https://facebook.com/wandwofficial/",
    "instagram": "https://instagram.com/wandwmusic",
    "twitter": "https://twitter.com/wandwmusic"
  },
  "upcoming_concerts": [
    {
      "title": "W&W",
      "date": "2025-03-15T17:00+01:00",
      "location": {
        "name": "Parc Rif Nel",
        "city": "Huez"
      },
      "festival": false
    },
    {
      "title": "W&W",
      "date": "2025-06-06T17:00+02:00",
      "location": {
        "name": "Goitzsche See Strand",
        "city": "Bitterfeld-wolfen"
      },
      "festival": false
    },
    {
      "title": "W&W",
      "date": "2025-07-09T17:00+02:00",
      "location": {
        "name": "Flugplatz Neustadt-Glewe",
        "city": "Neustadt-glewe"
      },
      "festival": false
    },
    {
      "title": "W&W",
      "date": "2025-07-18T17:00+02:00",
      "location": {
        "name": "Weeze Airport",
        "city": "Weeze"
      },
      "festival": false
    },
    {
      "title": "W&W",
      "date": "2025-08-02T22:00+02:00",
      "location": {
        "name": "Flugplatz Rotenburg (W\u00fcmme)",
        "city": "Rotenburg (w\u00fcmme)"
      },
      "festival": false
    },
    {
      "title": "W&W",
      "date": "2025-09-11T17:00+02:00",
      "location": {
        "name": "Hockenheimring",
        "city": "Hockenheim"
      },
      "festival": false
    }
  ]
}