{
  "name": "KSHMR",
  "monthly_listeners": 4875856,
  "followers": 1775879,
  "verified": true,
  "top_cities": [
    {
      "city": "Kochi",
      "country": "IN",
      "region": "KL",
      "listeners": 183080
    },
    {
      "city": "Mumbai",
      "country": "IN",
      "region": "MH",
      "listeners": 66173
    },
    {
      "city": "Bengaluru",
      "country": "IN",
      "region": "KA",
      "listeners": 64283
    },
    {
      "city": "Mexico City",
      "country": "MX",
      "region": "CMX",
      "listeners": 63478
    },
    {
      "city": "Pune",
      "country": "IN",
      "region": "MH",
      "listeners": 54730
    }
  ],
  "social_links": {
    "facebook": "https://facebook.com/KSHMRmusic",
    "instagram": "https://instagram.com/kshmr",
    "twitter": "https://twitter.com/KSHMRmusic",
    "wikipedia": "https://en.wikipedia.org/wiki/Kshmr"
  },
  "upcoming_concerts": [
    {
      "title": "KSHMR, Dzeko",
      "date": "2025-03-21T21:00-07:00",
      "location": {
        "name": "The Midway",
        "city": "San Francisco"
      },
      "festival": false
    },
    {
      "title": "KSHMR",
      "date": "2025-03-22T17:00-07:00",
      "location": {
        "name": "Tradex",
        "city": "Abbotsford"
      },
      "festival": false
    },
    {
      "title": "KSHMR",
      "date": "2025-04-04T22:00-04:00",
      "location": {
        "name": "NOTO",
        "city": "Philadelphia"
      },
      "festival": false
    },
    {
      "title": "KSHMR",
      "date": "2025-04-05T22:00-04:00",
      "location": {
        "name": "REBEL",
        "city": "Toronto"
      },
      "festival": false
    },
    {
      "title": "KSHMR",
      "date": "2025-04-11T22:00-04:00",
      "location": {
        "name": "New City Gas",
        "city": "Montreal"
      },
      "festival": false
    },
    {
      "title": "KSHMR",
      "date": "2025-04-12T21:00-04:00",
      "location": {
        "name": "Echostage",
        "city": "Washington"
      },
      "festival": false
    },
    {
      "title": "KSHMR",
      "date": "2025-05-02T23:00-05:00",
      "location": {
        "name": "TAO Chicago",
        "city": "Chicago"
      },
      "festival": false
    },
    {
      "title": "KSHMR",
      "date": "2025-05-09T21:00-05:00",
      "location": {
        "name": "SILO",
        "city": "Dallas"
      },
      "festival": false
    },
    {
      "title": "KSHMR",
      "date": "2025-05-30T22:00-07:00",
      "location": {
        "name": "Avalon Hollywood",
        "city": "Los Angeles"
      },
      "festival": false
    },
    {
      "title": "KSHMR",
      "date": "2025-05-31T22:00-07:00",
      "location": {
        "name": "Exchange LA",
        "city": "Los Angeles"
      },
      "festival": false
    }
  ]
}