{
  "name": "Blasterjaxx",
  "monthly_listeners": 2898571,
  "followers": 803758,
  "verified": true,
  "top_cities": [
    {
      "city": "Hamburg",
      "country": "DE",
      "region": "HH",
      "listeners": 58133
    },
    {
      "city": "Amsterdam",
      "country": "NL",
      "region": "NH",
      "listeners": 54362
    },
    {
      "city": "Jakarta",
      "country": "ID",
      "region": "JK",
      "listeners": 47244
    },
    {
      "city": "Munich",
      "country": "DE",
      "region": "BY",
      "listeners": 39368
    },
    {
      "city": "Stockholm",
      "country": "SE",
      "region": "AB",
      "listeners": 38564
    }
  ],
  "social_links": {
    "facebook": "https://facebook.com/BlasterjaxxOfficial",
    "instagram": "https://instagram.com/blasterjaxx",
    "twitter": "https://twitter.com/blasterjaxx",
    "wikipedia": "https://nl.wikipedia.org/wiki/Blasterjaxx"
  },
  "upcoming_concerts": [
    {
      "title": "Blasterjaxx",
      "date": "2025-03-12T22:00+07:00",
      "location": {
        "name": "Ark bar",
        "city": "Ko Samui District"
      },
      "festival": false
    },
    {
      "title": "Blasterjaxx",
      "date": "2025-03-16T15:30+01:00",
      "location": {
        "name": "Tomorrowland Winter",
        "city": "Huez"
      },
      "festival": false
    },
    {
      "title": "Blasterjaxx",
      "date": "2025-04-04T22:00-07:00",
      "location": {
        "name": "Pure Nightclub",
        "city": "Sunnyvale"
      },
      "festival": false
    },
    {
      "title": "Blasterjaxx",
      "date": "2025-04-05T22:00-07:00",
      "location": {
        "name": "Academy Nightclub",
        "city": "Los Angeles"
      },
      "festival": false
    },
    {
      "title": "Blasterjaxx",
      "date": "2025-04-11T17:00+10:00",
      "location": {
        "name": "Broadwater Parklands",
        "city": "Southport"
      },
      "festival": false
    },
    {
      "title": "Blasterjaxx",
      "date": "2025-04-12T13:00+10:00",
      "location": {
        "name": "Flemington Racecourse",
        "city": "Melbourne"
      },
      "festival": false
    },
    {
      "title": "Blasterjaxx",
      "date": "2025-05-24T17:00+02:00",
      "location": {
        "name": "Ekinox",
        "city": "Bourg-en-bresse"
      },
      "festival": false
    },
    {
      "title": "Blasterjaxx, THOMM",
      "date": "2025-05-29T17:00+02:00",
      "location": {
        "name": "Vechta Stoppelmarkt",
        "city": "Vechta"
      },
      "festival": false
    },
    {
      "title": "Blasterjaxx",
      "date": "2025-06-21T22:35+02:00",
      "location": {
        "name": "Silesia Park",
        "city": "Chorz\u00f3w"
      },
      "festival": false
    },
    {
      "title": "Blasterjaxx",
      "date": "2025-07-05T15:00+02:00",
      "location": {
        "name": "Mineralfreibad Oberes Bottwartal",
        "city": "Oberstenfeld"
      },
      "festival": false
    }
  ]
}