{
  "name": "ARTBAT",
  "monthly_listeners": 3967858,
  "followers": 473024,
  "verified": true,
  "top_cities": [
    {
      "city": "S\u00e3o Paulo",
      "country": "BR",
      "region": "SP",
      "listeners": 83004
    },
    {
      "city": "Mexico City",
      "country": "MX",
      "region": "CMX",
      "listeners": 76005
    },
    {
      "city": "Buenos Aires",
      "country": "AR",
      "region": "C",
      "listeners": 56907
    },
    {
      "city": "Istanbul",
      "country": "TR",
      "region": "34",
      "listeners": 51102
    },
    {
      "city": "Amsterdam",
      "country": "NL",
      "region": "NH",
      "listeners": 46169
    }
  ],
  "social_links": {
    "facebook": "https://facebook.com/artbatmusic",
    "instagram": "https://instagram.com/artbatmusic",
    "twitter": "https://twitter.com/artbatmusic"
  },
  "upcoming_concerts": [
    {
      "title": "ARTBAT",
      "date": "2025-03-14T22:00+01:00",
      "location": {
        "name": "Hangar",
        "city": "Belgrade"
      },
      "festival": false
    },
    {
      "title": "ARTBAT",
      "date": "2025-03-28T22:00-04:00",
      "location": {
        "name": "FPL Solar Amphitheater at Bayfront Park",
        "city": "Miami"
      },
      "festival": false
    },
    {
      "title": "ARTBAT, Miss Monique, Olympe",
      "date": "2025-03-29T22:00-04:00",
      "location": {
        "name": "M2 Miami",
        "city": "Miami Beach"
      },
      "festival": false
    },
    {
      "title": "999999999, Above & Beyond, Adam Beyer, AFROJACK, Alesso, Anyma, Solomun, Armin van Buuren, ARTBAT, Axwell, Boris Brejcha, Carl Cox, Charlotte de Witte, Chase & Status, deadmau5, Pendulum, Eli Brown, Dom Dolla, John Summit, Four Tet, Gesaffelstein, Hardwell, I Hate Models, LSDREAM, CloZee, Martin Garrix, Mau P, Miss Monique, Nero, NGHTMRE, Sullivan King, Richie Hawtin, Subtronics, Ti\u00ebsto, Zedd, Zeds Dead",
      "date": "2025-03-30T12:00-04:00",
      "location": {
        "name": "FPL Solar Amphitheater at Bayfront Park",
        "city": "Miami"
      },
      "festival": false
    },
    {
      "title": "ARTBAT",
      "date": "2025-04-11T22:00+08:00",
      "location": {
        "name": "Bandar Malaysia Sdn. Bhd.",
        "city": "Kuala Lumpur"
      },
      "festival": false
    },
    {
      "title": "ARTBAT",
      "date": "2025-04-12T22:00+07:00",
      "location": {
        "name": "RCA",
        "city": "Khet Huai Khwang"
      },
      "festival": false
    },
    {
      "title": "ARTBAT",
      "date": "2025-04-18T22:00-05:00",
      "location": {
        "name": "Costa 21",
        "city": "San Miguel"
      },
      "festival": false
    },
    {
      "title": "ARTBAT",
      "date": "2025-04-19T22:00-03:00",
      "location": {
        "name": "Paseo Parque de la Ciudad",
        "city": "Villa Argentina"
      },
      "festival": false
    },
    {
      "title": "ARTBAT",
      "date": "2025-04-26T22:00+04:00",
      "location": {
        "name": "Ethiad Park, Yas Island",
        "city": "Abu Dhabi"
      },
      "festival": false
    },
    {
      "title": "ARTBAT, Argy",
      "date": "2025-05-18T22:00-07:00",
      "location": {
        "name": "EDC Las Vegas",
        "city": "Las Vegas"
      },
      "festival": false
    }
  ]
}