{
  "name": "Porter Robinson",
  "monthly_listeners": 1946376,
  "followers": 1195073,
  "verified": true,
  "top_cities": [
    {
      "city": "Los Angeles",
      "country": "US",
      "region": "CA",
      "listeners": 42959
    },
    {
      "city": "Sydney",
      "country": "AU",
      "region": "NSW",
      "listeners": 30998
    },
    {
      "city": "Chicago",
      "country": "US",
      "region": "IL",
      "listeners": 27383
    },
    {
      "city": "New York City",
      "country": "US",
      "region": "NY",
      "listeners": 26366
    },
    {
      "city": "Melbourne",
      "country": "AU",
      "region": "VIC",
      "listeners": 24321
    }
  ],
  "social_links": {
    "facebook": "https://facebook.com/porterrobinsonmusic",
    "instagram": "https://instagram.com/porterrobinson",
    "twitter": "https://twitter.com/porterrobinson"
  },
  "upcoming_concerts": [
    {
      "title": "Porter Robinson",
      "date": "2025-03-06T19:00Z",
      "location": {
        "name": "O2 Academy Brixton",
        "city": "London"
      },
      "festival": false
    },
    {
      "title": "Porter Robinson",
      "date": "2025-03-07T20:00Z",
      "location": {
        "name": "Manchester Academy",
        "city": "Manchester"
      },
      "festival": false
    },
    {
      "title": "Porter Robinson, underscores",
      "date": "2025-03-08T19:00Z",
      "location": {
        "name": "Galvanizers SWG3",
        "city": "Glasgow"
      },
      "festival": false
    },
    {
      "title": "Porter Robinson, underscores",
      "date": "2025-03-10T19:00Z",
      "location": {
        "name": "3Olympia Theatre",
        "city": "Dublin"
      },
      "festival": false
    },
    {
      "title": "Porter Robinson, Dean, seiji oda, yung kai",
      "date": "2025-05-31T17:00-07:00",
      "location": {
        "name": "Rose Bowl Stadium",
        "city": "Pasadena"
      },
      "festival": false
    },
    {
      "title": "Porter Robinson",
      "date": "2025-06-06T19:00-05:00",
      "location": {
        "name": "SILO Dallas",
        "city": "Dallas"
      },
      "festival": false
    },
    {
      "title": "Porter Robinson",
      "date": "2025-06-19T17:00-05:00",
      "location": {
        "name": "Multiple Venues & Stages",
        "city": "Milwaukee"
      },
      "festival": false
    },
    {
      "title": "Porter Robinson",
      "date": "2025-08-16T17:00+09:00",
      "location": {
        "name": "Maishima Ryokuchi Park",
        "city": "Osaka"
      },
      "festival": false
    },
    {
      "title": "Porter Robinson",
      "date": "2025-08-16T17:00+09:00",
      "location": {
        "name": "ZOZO Marine Stadium",
        "city": "Chiba"
      },
      "festival": false
    }
  ]
}