{
  "name": "Showtek",
  "monthly_listeners": 4965971,
  "followers": 483001,
  "verified": true,
  "top_cities": [
    {
      "city": "Mexico City",
      "country": "MX",
      "region": "CMX",
      "listeners": 115975
    },
    {
      "city": "Amsterdam",
      "country": "NL",
      "region": "NH",
      "listeners": 74191
    },
    {
      "city": "Santiago",
      "country": "CL",
      "region": "RM",
      "listeners": 74163
    },
    {
      "city": "Sydney",
      "country": "AU",
      "region": "NSW",
      "listeners": 66901
    },
    {
      "city": "Bogot\u00e1",
      "country": "CO",
      "region": "DC",
      "listeners": 58073
    }
  ],
  "social_links": {
    "facebook": "https://facebook.com/showtek",
    "instagram": "https://instagram.com/showtek",
    "twitter": "https://twitter.com/showtek",
    "wikipedia": "https://nl.wikipedia.org/wiki/Showtek"
  },
  "upcoming_concerts": [
    {
      "title": "Showtek",
      "date": "2025-03-07T00:30-07:00",
      "location": {
        "name": "The Great Saltair",
        "city": "Salt Lake City"
      },
      "festival": false
    },
    {
      "title": "Showtek",
      "date": "2025-03-14T00:00+01:00",
      "location": {
        "name": "Bootshaus Cologne",
        "city": "Cologne"
      },
      "festival": false
    },
    {
      "title": "Showtek",
      "date": "2025-03-15T23:00+01:00",
      "location": {
        "name": "Docks Hamburg",
        "city": "HAMBURG"
      },
      "festival": false
    },
    {
      "title": "Showtek, DubVision",
      "date": "2025-03-21T19:00-05:00",
      "location": {
        "name": "Assiniboia Downs",
        "city": "Winnipeg"
      },
      "festival": false
    },
    {
      "title": "Showtek",
      "date": "2025-03-28T17:00-07:00",
      "location": {
        "name": "NOS Events Center",
        "city": "San Bernardino"
      },
      "festival": false
    },
    {
      "title": "Showtek",
      "date": "2025-03-29T21:00-06:00",
      "location": {
        "name": "Union Hall",
        "city": "Edmonton"
      },
      "festival": false
    },
    {
      "title": "Showtek, Robin Schulz, morten, James Hype, Dimitri Vegas",
      "date": "2025-04-04T19:00+02:00",
      "location": {
        "name": "Accor Arena",
        "city": "PARIS"
      },
      "festival": false
    },
    {
      "title": "Showtek",
      "date": "2025-04-04T21:42+02:00",
      "location": {
        "name": "Accor Arena",
        "city": "Paris"
      },
      "festival": false
    },
    {
      "title": "Showtek",
      "date": "2025-05-29T21:35+02:00",
      "location": {
        "name": "Stoppelmarkt",
        "city": "Vechta"
      },
      "festival": false
    },
    {
      "title": "Showtek",
      "date": "2025-06-06T00:00+02:00",
      "location": {
        "name": "Ch\u00e2teau de Grillemont",
        "city": "La Chapelle-blanche-saint-martin"
      },
      "festival": false
    }
  ]
}