{
  "name": "Mark Knight",
  "monthly_listeners": 1592607,
  "followers": 154833,
  "verified": true,
  "top_cities": [
    {
      "city": "London",
      "country": "GB",
      "region": "ENG",
      "listeners": 40144
    },
    {
      "city": "Sydney",
      "country": "AU",
      "region": "NSW",
      "listeners": 32048
    },
    {
      "city": "Melbourne",
      "country": "AU",
      "region": "VIC",
      "listeners": 27713
    },
    {
      "city": "Amsterdam",
      "country": "NL",
      "region": "NH",
      "listeners": 23178
    },
    {
      "city": "Santiago",
      "country": "CL",
      "region": "RM",
      "listeners": 18369
    }
  ],
  "social_links": {
    "facebook": "https://facebook.com/djmarkknight",
    "instagram": "https://instagram.com/djmarkknight",
    "twitter": "https://twitter.com/djmarkknight"
  },
  "upcoming_concerts": [
    {
      "title": "Mark Knight, Tony Romera, Gene Farris, SIDEPIECE, Martin Ikin",
      "date": "2025-03-30T12:00-04:00",
      "location": {
        "name": "Surfcomber Hotel",
        "city": "Miami Beach"
      },
      "festival": false
    },
    {
      "title": "Mark Knight",
      "date": "2025-04-26T22:00-04:00",
      "location": {
        "name": "Soundcheck",
        "city": "Washington"
      },
      "festival": false
    },
    {
      "title": "Mark Knight",
      "date": "2025-04-27T14:00-04:00",
      "location": {
        "name": "The Roof at Superior Ingredients",
        "city": "New York"
      },
      "festival": false
    },
    {
      "title": "Gok Wan, Mark Knight",
      "date": "2025-05-03T12:00+01:00",
      "location": {
        "name": "The Nene Flyover Peterborough",
        "city": "Peterborough"
      },
      "festival": false
    },
    {
      "title": "Mark Knight",
      "date": "2025-05-03T12:00+01:00",
      "location": {
        "name": "The Nene Flyover",
        "city": "Peterborough"
      },
      "festival": false
    },
    {
      "title": "Mark Knight",
      "date": "2025-05-04T12:00+01:00",
      "location": {
        "name": "The Nene Flyover",
        "city": "Peterborough"
      },
      "festival": false
    },
    {
      "title": "Soul II Soul, Roger Sanchez, Mark Knight, Mas Que Nada Brothers, Jon Pleased Wimmin, Danny Rampling",
      "date": "2025-06-14T13:00+01:00",
      "location": {
        "name": "Brighton Hove Lawns",
        "city": "Brighton"
      },
      "festival": false
    }
  ]
}