{
  "name": "Robin Schulz",
  "monthly_listeners": 26332366,
  "followers": 3189642,
  "verified": true,
  "top_cities": [
    {
      "city": "Sydney",
      "country": "AU",
      "region": "NSW",
      "listeners": 370085
    },
    {
      "city": "Mexico City",
      "country": "MX",
      "region": "CMX",
      "listeners": 330873
    },
    {
      "city": "S\u00e3o Paulo",
      "country": "BR",
      "region": "SP",
      "listeners": 297165
    },
    {
      "city": "Melbourne",
      "country": "AU",
      "region": "VIC",
      "listeners": 295110
    },
    {
      "city": "Amsterdam",
      "country": "NL",
      "region": "NH",
      "listeners": 294739
    }
  ],
  "social_links": {
    "facebook": "https://facebook.com/robin.schulz.official/",
    "instagram": "https://instagram.com/robin__schulz/",
    "twitter": "https://twitter.com/robin_schulz",
    "wikipedia": "https://de.wikipedia.org/wiki/Robin_Schulz"
  },
  "upcoming_concerts": [
    {
      "title": "Robin Schulz",
      "date": "2025-03-07T22:30-05:00",
      "location": {
        "name": "DPRTMNT",
        "city": "Toronto"
      },
      "festival": false
    },
    {
      "title": "Robin Schulz",
      "date": "2025-03-08T22:00-05:00",
      "location": {
        "name": "DAER Nightclub South Florida",
        "city": "Hollywood"
      },
      "festival": false
    },
    {
      "title": "Robin Schulz, Linney",
      "date": "2025-03-13T21:00-07:00",
      "location": {
        "name": "1015 Folsom",
        "city": "San Francisco"
      },
      "festival": false
    },
    {
      "title": "Robin Schulz",
      "date": "2025-03-14T21:15-06:00",
      "location": {
        "name": "Sky SLC",
        "city": "Salt Lake City"
      },
      "festival": false
    },
    {
      "title": "Robin Schulz",
      "date": "2025-03-15T22:00-07:00",
      "location": {
        "name": "Avalon Hollywood",
        "city": "Los Angeles"
      },
      "festival": false
    },
    {
      "title": "Robin Schulz",
      "date": "2025-03-21T22:00-04:00",
      "location": {
        "name": "New City Gas",
        "city": "Montreal"
      },
      "festival": false
    },
    {
      "title": "Robin Schulz",
      "date": "2025-03-22T23:00-05:00",
      "location": {
        "name": "TAO Chicago",
        "city": "Chicago"
      },
      "festival": false
    },
    {
      "title": "Robin Schulz",
      "date": "2025-03-28T23:00-04:00",
      "location": {
        "name": "Marquee New York",
        "city": "New York City"
      },
      "festival": false
    },
    {
      "title": "Robin Schulz",
      "date": "2025-03-29T22:30-04:00",
      "location": {
        "name": "Big Night Live",
        "city": "Boston"
      },
      "festival": false
    },
    {
      "title": "Showtek, Robin Schulz, morten, James Hype, Dimitri Vegas",
      "date": "2025-04-04T19:00+02:00",
      "location": {
        "name": "Accor Arena",
        "city": "PARIS"
      },
      "festival": false
    }
  ]
}