{
  "name": "DubVision",
  "monthly_listeners": 1421167,
  "followers": 322319,
  "verified": true,
  "top_cities": [
    {
      "city": "Amsterdam",
      "country": "NL",
      "region": "NH",
      "listeners": 20923
    },
    {
      "city": "Mexico City",
      "country": "MX",
      "region": "CMX",
      "listeners": 20913
    },
    {
      "city": "Sydney",
      "country": "AU",
      "region": "NSW",
      "listeners": 15668
    },
    {
      "city": "Los Angeles",
      "country": "US",
      "region": "CA",
      "listeners": 14927
    },
    {
      "city": "New York City",
      "country": "US",
      "region": "NY",
      "listeners": 14789
    }
  ],
  "social_links": {
    "facebook": "https://facebook.com/dubvisionmusic",
    "instagram": "https://instagram.com/dubvisionmusic",
    "twitter": "https://twitter.com/dubvisionmusic",
    "wikipedia": "https://en.wikipedia.org/wiki/DubVision"
  },
  "upcoming_concerts": [
    {
      "title": "DubVision",
      "date": "2025-03-14T23:00-04:00",
      "location": {
        "name": "Nebula",
        "city": "New York"
      },
      "festival": false
    },
    {
      "title": "Showtek, DubVision",
      "date": "2025-03-21T19:00-05:00",
      "location": {
        "name": "Assiniboia Downs",
        "city": "Winnipeg"
      },
      "festival": false
    },
    {
      "title": "DubVision",
      "date": "2025-03-22T22:00-05:00",
      "location": {
        "name": "Electric Hotel Nightclub",
        "city": "Chicago"
      },
      "festival": false
    },
    {
      "title": "DubVision, Julian Jordan, Justin Mylo, Lavern, Mesto, Mikey Barreneche, KVSH, Mesto",
      "date": "2025-03-27T12:00-04:00",
      "location": {
        "name": "Surfcomber Hotel",
        "city": "Miami Beach"
      },
      "festival": false
    },
    {
      "title": "Audien, Third Party, DubVision, Leondis",
      "date": "2025-03-27T22:00-04:00",
      "location": {
        "name": "MAD LIVE",
        "city": "Miami"
      },
      "festival": false
    },
    {
      "title": "DubVision",
      "date": "2025-05-30T22:00-04:00",
      "location": {
        "name": "Kemistry",
        "city": "Fort Lauderdale"
      },
      "festival": false
    },
    {
      "title": "DubVision",
      "date": "2025-05-31T22:00-07:00",
      "location": {
        "name": "Q Nightclub",
        "city": "Seattle"
      },
      "festival": false
    }
  ]
}