{
  "name": "James Hype",
  "monthly_listeners": 9080353,
  "followers": 435391,
  "verified": true,
  "top_cities": [
    {
      "city": "Sydney",
      "country": "AU",
      "region": "NSW",
      "listeners": 150329
    },
    {
      "city": "London",
      "country": "GB",
      "region": "ENG",
      "listeners": 149673
    },
    {
      "city": "Milan",
      "country": "IT",
      "region": "25",
      "listeners": 126803
    },
    {
      "city": "S\u00e3o Paulo",
      "country": "BR",
      "region": "SP",
      "listeners": 124836
    },
    {
      "city": "Melbourne",
      "country": "AU",
      "region": "VIC",
      "listeners": 121105
    }
  ],
  "social_links": {
    "facebook": "https://facebook.com/jameshypethedj",
    "instagram": "https://instagram.com/jameshype",
    "twitter": "https://twitter.com/jameshype",
    "wikipedia": "https://en.wikipedia.org/wiki/James_Hype"
  },
  "upcoming_concerts": [
    {
      "title": "James Hype",
      "date": "2025-03-30T12:00-04:00",
      "location": {
        "name": "Hyde Beach",
        "city": "Miami Beach"
      },
      "festival": false
    },
    {
      "title": "James Hype",
      "date": "2025-03-31T17:00-04:00",
      "location": {
        "name": "Level One",
        "city": "Baltimore"
      },
      "festival": false
    },
    {
      "title": "Showtek, Robin Schulz, morten, James Hype, Dimitri Vegas",
      "date": "2025-04-04T19:00+02:00",
      "location": {
        "name": "Accor Arena",
        "city": "PARIS"
      },
      "festival": false
    },
    {
      "title": "James Hype",
      "date": "2025-04-19T22:00-04:00",
      "location": {
        "name": "District Atlanta",
        "city": "Atlanta"
      },
      "festival": false
    },
    {
      "title": "James Hype",
      "date": "2025-05-24T11:00-04:00",
      "location": {
        "name": "Ocean Resort Casino - HQ2 Beachclub",
        "city": "Atlantic City"
      },
      "festival": false
    },
    {
      "title": "James Hype",
      "date": "2025-06-06T21:00-05:00",
      "location": {
        "name": "The Concourse Project",
        "city": "Austin"
      },
      "festival": false
    },
    {
      "title": "Solidays - Pass Vendredi",
      "date": "2025-06-27T14:00+02:00",
      "location": {
        "name": "Hippodrome de Longchamp",
        "city": "PARIS"
      },
      "festival": true
    },
    {
      "title": "SOLIDAYS 2025 - PASS 1 JOUR VENDREDI",
      "date": "2025-06-29T14:02+02:00",
      "location": {
        "name": "Hippodrome De Longchamp",
        "city": "Paris"
      },
      "festival": true
    },
    {
      "title": "James Hype",
      "date": "2025-07-05T22:00-04:00",
      "location": {
        "name": "The Brooklyn Mirage at Avant Gardner",
        "city": "New York"
      },
      "festival": false
    },
    {
      "title": "Amelie Lens, Paul Kalkbrenner, Ir\u00e8ne Dr\u00e9sel, Mind Against, B2B, Joachim Pastor, KAS:ST, Anfisa Letyago, Space 92, Sara Landry, James Hype, Argy, Nico Moreno, Nico Morano",
      "date": "2025-08-15T18:00+02:00",
      "location": {
        "name": "Th\u00e9\u00e2tre Antique",
        "city": "ORANGE"
      },
      "festival": false
    }
  ]
}