{
  "name": "Matroda",
  "monthly_listeners": 2120370,
  "followers": 144600,
  "verified": true,
  "top_cities": [
    {
      "city": "Los Angeles",
      "country": "US",
      "region": "CA",
      "listeners": 44935
    },
    {
      "city": "Mexico City",
      "country": "MX",
      "region": "CMX",
      "listeners": 34784
    },
    {
      "city": "Sydney",
      "country": "AU",
      "region": "NSW",
      "listeners": 33069
    },
    {
      "city": "Melbourne",
      "country": "AU",
      "region": "VIC",
      "listeners": 27896
    },
    {
      "city": "Chicago",
      "country": "US",
      "region": "IL",
      "listeners": 25453
    }
  ],
  "social_links": {
    "facebook": "https://facebook.com/matrodamusic",
    "instagram": "https://instagram.com/matrodamusic",
    "twitter": "https://twitter.com/matrodamusic"
  },
  "upcoming_concerts": [
    {
      "title": "Matroda, J. Worra, Ms. Mada",
      "date": "2025-03-07T23:00-05:00",
      "location": {
        "name": "Club Space Miami",
        "city": "Miami"
      },
      "festival": false
    },
    {
      "title": "Matroda",
      "date": "2025-03-08T19:00-06:00",
      "location": {
        "name": "The Caverns",
        "city": "Pelham"
      },
      "festival": false
    },
    {
      "title": "Matroda",
      "date": "2025-03-16T20:00-04:00",
      "location": {
        "name": "Imagine Punta Cana",
        "city": "Punta Cana"
      },
      "festival": false
    },
    {
      "title": "Matroda, San Pacho, OMNOM, CID, Coco & Breezy, Ky William, Jackie Hollander, BAGGI",
      "date": "2025-03-28T13:00-04:00",
      "location": {
        "name": "National Hotel",
        "city": "Miami"
      },
      "festival": false
    },
    {
      "title": "Matroda",
      "date": "2025-03-30T19:00-04:00",
      "location": {
        "name": "Factory Town",
        "city": "Miami"
      },
      "festival": false
    },
    {
      "title": "Matroda",
      "date": "2025-04-05T21:00-07:00",
      "location": {
        "name": "Stage 722",
        "city": "Portland"
      },
      "festival": false
    },
    {
      "title": "Matroda",
      "date": "2025-04-06T11:30-07:00",
      "location": {
        "name": "LIV Beach",
        "city": "Las Vegas"
      },
      "festival": false
    },
    {
      "title": "ILLENIUM, ANOLUXX, Alison Wonderland, Andromedik, BLOND:ISH, Ben Hemsley, Boys Noize, Crankdat, Daniel Allan, Disco Dom, Dom Dolla, Dombresky, Dual Damage, Francis Mercier, Kompany, Loud Luxury, Matroda, Nora En Pure, OMRI., Of The Trees, Paul Oakenfold, Pocket, Rezz, Rooler, Sara Landry, Trivecta, Truth, VNSSA, Victor Ruiz",
      "date": "2025-05-16T17:00-07:00",
      "location": {
        "name": "EDC Las Vegas",
        "city": "Las Vegas"
      },
      "festival": false
    },
    {
      "title": "Matroda",
      "date": "2025-05-31T17:00-04:00",
      "location": {
        "name": "RFK Festival Grounds",
        "city": "Greenway"
      },
      "festival": false
    },
    {
      "title": "SLANDER, Yellow Claw, Bou, Le Youth, MK, AHEE, ARMNHMR, BIIANCO, Bassrush, Basstripper, Biscits, Cassian, Coco & Breezy, D.O.D, DANNY AVILA, Gene Farris, Godlands, Green Velvet, Hedex, Jackie Hollander, James Hype, Jessica Audiffred, Level Up, MOONLGHT, MPH, Matroda, MEDUZA, Mersiv, Netsky, Nikita, the Wicked, Odd Mob, OMNOM, Ravenscoon, San Pacho, SIDEPIECE, SampliFire, Subtronics, Tom & Collins, TroyBoi, Virtual Riot, Walker & Royce, Wilkinson, $wooli, YDG, Zen Selekta, Martin Ikin, \u00c6ON:MODE",
      "date": "2025-06-07T17:00-05:00",
      "location": {
        "name": "Huntington Bank Pavilion at Northerly Island",
        "city": "Chicago"
      },
      "festival": false
    }
  ]
}