{
  "name": "Westend",
  "monthly_listeners": 2155530,
  "followers": 59643,
  "verified": true,
  "top_cities": [
    {
      "city": "Sydney",
      "country": "AU",
      "region": "NSW",
      "listeners": 31814
    },
    {
      "city": "Los Angeles",
      "country": "US",
      "region": "CA",
      "listeners": 30961
    },
    {
      "city": "Melbourne",
      "country": "AU",
      "region": "VIC",
      "listeners": 30034
    },
    {
      "city": "Santiago",
      "country": "CL",
      "region": "RM",
      "listeners": 27912
    },
    {
      "city": "Mexico City",
      "country": "MX",
      "region": "CMX",
      "listeners": 26880
    }
  ],
  "social_links": {
    "facebook": "https://facebook.com/itsthewestend",
    "instagram": "https://instagram.com/itsthewestend",
    "twitter": "https://twitter.com/itsthewestend"
  },
  "upcoming_concerts": [
    {
      "title": "Westend",
      "date": "2025-03-22T21:00-04:00",
      "location": {
        "name": "Ember Music Hall",
        "city": "Richmond"
      },
      "festival": false
    },
    {
      "title": "Westend",
      "date": "2025-03-28T17:00-07:00",
      "location": {
        "name": "NOS Events Center",
        "city": "San Bernardino"
      },
      "festival": false
    },
    {
      "title": "Breakaway Music Festival Tampa 2025",
      "date": "2025-04-26T17:00-04:00",
      "location": {
        "name": "Raymond James Stadium North Grounds",
        "city": "Tampa"
      },
      "festival": true
    },
    {
      "title": "Westend",
      "date": "2025-05-17T22:00-04:00",
      "location": {
        "name": "99 Scott - Main Room",
        "city": "New York"
      },
      "festival": false
    },
    {
      "title": "Westend",
      "date": "2025-05-30T20:00-06:00",
      "location": {
        "name": "Bluebird Theater",
        "city": "Denver"
      },
      "festival": false
    },
    {
      "title": "Chris Lake, deadmau5, Excision, Galantis, Kaskade, Louis The Child, Of The Trees, Rezz, RL Grime, Seven Lions, Sofi Tukker, Timmy Trumpet, SVDDEN DEATH, Zedd, Zeds Dead, Apashe, Benny Benassi, Detox Unit, Kai Wachi, KREAM, LP Giobbi, NGHTMRE, Dimension, PEEKABOO, Caspa, Ray Volpe, Tinlicker, Wax Motif, BONNIE X CLYDE, Distinct Motive, Heyz, Ian Asher, Jon Casey, Joshwa, Juelz, Kaleena Zanders, Lil Texas, MC4D, Skepsis, Westend, YOOKiE, Audiofreq, Caster, Control Freak, Darksiderz, Dennett, Muzz, Kreation, Dogma, Prosecute, Pyke, Rohaan, Seth David, Sherm, The Stooges, VKTM, Pyke, Taiki Nulight",
      "date": "2025-08-29T00:00-05:00",
      "location": {
        "name": "SeatGeek Stadium",
        "city": "Bridgeview"
      },
      "festival": false
    }
  ]
}