{
  "name": "Claptone",
  "monthly_listeners": 3180234,
  "followers": 557171,
  "verified": true,
  "top_cities": [
    {
      "city": "Mexico City",
      "country": "MX",
      "region": "CMX",
      "listeners": 77552
    },
    {
      "city": "Santiago",
      "country": "CL",
      "region": "RM",
      "listeners": 69357
    },
    {
      "city": "Buenos Aires",
      "country": "AR",
      "region": "C",
      "listeners": 51297
    },
    {
      "city": "Sydney",
      "country": "AU",
      "region": "NSW",
      "listeners": 44519
    },
    {
      "city": "Amsterdam",
      "country": "NL",
      "region": "NH",
      "listeners": 44071
    }
  ],
  "social_links": {
    "facebook": "https://facebook.com/claptone.official/",
    "instagram": "https://instagram.com/claptone.official",
    "twitter": "https://twitter.com/Claptone_"
  },
  "upcoming_concerts": [
    {
      "title": "Claptone",
      "date": "2025-03-07T12:00+09:00",
      "location": {
        "name": "Snow Machine",
        "city": "Hakuba"
      },
      "festival": false
    },
    {
      "title": "Claptone",
      "date": "2025-03-08T12:00+08:00",
      "location": {
        "name": "Central Harbourfront Event Space",
        "city": "Central"
      },
      "festival": false
    },
    {
      "title": "Sonny Fodera, Patrick Topping, Claptone",
      "date": "2025-03-08T20:00+01:00",
      "location": {
        "name": "La Cubierta de Legan\u00e9s",
        "city": "Legan\u00e9s"
      },
      "festival": false
    },
    {
      "title": "Claptone",
      "date": "2025-03-13T12:00+09:00",
      "location": {
        "name": "Niseko Village",
        "city": "\u867b\u7530\u90e1\u30cb\u30bb\u30b3\u753a"
      },
      "festival": false
    },
    {
      "title": "Claptone",
      "date": "2025-03-18T20:00+01:00",
      "location": {
        "name": "Le Board Val Thorens - Centre Sportif",
        "city": "Val Thorens"
      },
      "festival": false
    },
    {
      "title": "Claptone",
      "date": "2025-03-20T20:00+01:00",
      "location": {
        "name": "Le Board Val Thorens - Centre Sportif",
        "city": "Val Thorens"
      },
      "festival": false
    },
    {
      "title": "Claptone, Carlita",
      "date": "2025-03-21T21:00+01:00",
      "location": {
        "name": "Verbier",
        "city": "Bagnes"
      },
      "festival": false
    },
    {
      "title": "Claptone",
      "date": "2025-04-04T23:00-04:00",
      "location": {
        "name": "Marquee New York",
        "city": "New York City"
      },
      "festival": false
    },
    {
      "title": "Claptone",
      "date": "2025-04-05T12:00-06:00",
      "location": {
        "name": "Parque Fundidora",
        "city": "Monterrey"
      },
      "festival": false
    },
    {
      "title": "Claptone",
      "date": "2025-04-11T22:00+03:00",
      "location": {
        "name": "Bucuresti TV",
        "city": "Bucure\u0219ti"
      },
      "festival": false
    }
  ]
}