{
  "name": "GENESI",
  "monthly_listeners": 1753030,
  "followers": 20200,
  "verified": true,
  "top_cities": [
    {
      "city": "Sydney",
      "country": "AU",
      "region": "NSW",
      "listeners": 25922
    },
    {
      "city": "Melbourne",
      "country": "AU",
      "region": "VIC",
      "listeners": 23038
    },
    {
      "city": "Buenos Aires",
      "country": "AR",
      "region": "C",
      "listeners": 21703
    },
    {
      "city": "Los Angeles",
      "country": "US",
      "region": "CA",
      "listeners": 20795
    },
    {
      "city": "S\u00e3o Paulo",
      "country": "BR",
      "region": "SP",
      "listeners": 19668
    }
  ],
  "social_links": {
    "facebook": "https://facebook.com/genesioff",
    "instagram": "https://instagram.com/genesiofc/?hl=it",
    "twitter": "https://twitter.com/genesiofc"
  },
  "upcoming_concerts": [
    {
      "title": "GENESI",
      "date": "2025-03-07T19:00+01:00",
      "location": {
        "name": "6MIC - Salle des Musiques Actuelles du Pays d'Aix",
        "city": "Fond De France"
      },
      "festival": false
    },
    {
      "title": "GENESI",
      "date": "2025-03-15T23:30+04:00",
      "location": {
        "name": "FOMO Baku",
        "city": "Baku"
      },
      "festival": false
    },
    {
      "title": "GENESI",
      "date": "2025-03-29T12:00-04:00",
      "location": {
        "name": "SLS South Beach",
        "city": "Miami Beach"
      },
      "festival": false
    },
    {
      "title": "GENESI",
      "date": "2025-08-09T17:00-04:00",
      "location": {
        "name": "Parc Jean-Drapeau",
        "city": "Montr\u00e9al"
      },
      "festival": false
    }
  ]
}