{
  "name": "ACRAZE",
  "monthly_listeners": 6056248,
  "followers": 143957,
  "verified": true,
  "top_cities": [
    {
      "city": "S\u00e3o Paulo",
      "country": "BR",
      "region": "SP",
      "listeners": 120783
    },
    {
      "city": "Mexico City",
      "country": "MX",
      "region": "CMX",
      "listeners": 88167
    },
    {
      "city": "Sydney",
      "country": "AU",
      "region": "NSW",
      "listeners": 81086
    },
    {
      "city": "Santiago",
      "country": "CL",
      "region": "RM",
      "listeners": 68413
    },
    {
      "city": "Melbourne",
      "country": "AU",
      "region": "VIC",
      "listeners": 67063
    }
  ],
  "social_links": {
    "facebook": "https://facebook.com/MusicAcraze/",
    "instagram": "https://instagram.com/acraze/?hl=en",
    "twitter": "https://twitter.com/Acraze___"
  },
  "upcoming_concerts": [
    {
      "title": "ACRAZE",
      "date": "2025-03-08T22:00-05:00",
      "location": {
        "name": "A.i.",
        "city": "Washington"
      },
      "festival": false
    },
    {
      "title": "ACRAZE",
      "date": "2025-03-14T22:00-04:00",
      "location": {
        "name": "The Vanguard",
        "city": "Orlando"
      },
      "festival": false
    },
    {
      "title": "ACRAZE",
      "date": "2025-03-27T22:00-04:00",
      "location": {
        "name": "MANA 320",
        "city": "Miami"
      },
      "festival": false
    },
    {
      "title": "ACRAZE",
      "date": "2025-03-28T17:00-07:00",
      "location": {
        "name": "NOS Events Center",
        "city": "San Bernardino"
      },
      "festival": false
    },
    {
      "title": "Breakaway Music Festival Dallas 2025",
      "date": "2025-04-04T16:00-05:00",
      "location": {
        "name": "Fair Park",
        "city": "Dallas"
      },
      "festival": true
    },
    {
      "title": "ACRAZE",
      "date": "2025-04-05T13:00-05:00",
      "location": {
        "name": "Harriet's Rooftop",
        "city": "Nashville"
      },
      "festival": false
    },
    {
      "title": "ACRAZE",
      "date": "2025-04-05T20:00-05:00",
      "location": {
        "name": "Night We Met",
        "city": "Nashville"
      },
      "festival": false
    },
    {
      "title": "ACRAZE",
      "date": "2025-04-12T17:00-03:00",
      "location": {
        "name": "Est\u00e2ncia Alto da Serra",
        "city": "S\u00e3o Bernardo Do Campo"
      },
      "festival": false
    },
    {
      "title": "ACRAZE",
      "date": "2025-05-02T22:00-04:00",
      "location": {
        "name": "The Grand (Boston)",
        "city": "Boston"
      },
      "festival": false
    },
    {
      "title": "ACRAZE",
      "date": "2025-05-03T23:00-04:00",
      "location": {
        "name": "Ocean Resort Casino, HQ2 Nightclub and HQ2 Dayclub/Beachclub",
        "city": "Atlantic City"
      },
      "festival": false
    }
  ]
}