{
  "name": "Odd Mob",
  "monthly_listeners": 4259832,
  "followers": 97796,
  "verified": true,
  "top_cities": [
    {
      "city": "Sydney",
      "country": "AU",
      "region": "NSW",
      "listeners": 147129
    },
    {
      "city": "Melbourne",
      "country": "AU",
      "region": "VIC",
      "listeners": 128250
    },
    {
      "city": "Brisbane",
      "country": "AU",
      "region": "QLD",
      "listeners": 102742
    },
    {
      "city": "Perth",
      "country": "AU",
      "region": "WA",
      "listeners": 67246
    },
    {
      "city": "Los Angeles",
      "country": "US",
      "region": "CA",
      "listeners": 59696
    }
  ],
  "social_links": {
    "facebook": "https://facebook.com/ODDMOB",
    "instagram": "https://instagram.com/odd_mob",
    "twitter": "https://twitter.com/ODD_MOB",
    "wikipedia": "https://en.wikipedia.org/wiki/Odd_Mob"
  },
  "upcoming_concerts": [
    {
      "title": "Odd Mob",
      "date": "2025-03-16T12:00-07:00",
      "location": {
        "name": "Maya Dayclub",
        "city": "Scottsdale"
      },
      "festival": false
    },
    {
      "title": "Odd Mob",
      "date": "2025-03-21T22:00-04:00",
      "location": {
        "name": "District Atlanta",
        "city": "Atlanta"
      },
      "festival": false
    },
    {
      "title": "Odd Mob",
      "date": "2025-03-22T23:00-04:00",
      "location": {
        "name": "Ocean Resort Casino, HQ2 Nightclub and HQ2 Dayclub/Beachclub",
        "city": "Atlantic City"
      },
      "festival": false
    },
    {
      "title": "Odd Mob",
      "date": "2025-03-28T17:00-07:00",
      "location": {
        "name": "NOS Events Center",
        "city": "San Bernardino"
      },
      "festival": false
    },
    {
      "title": "Shabang Music, Camping, & Arts Festival 2025",
      "date": "2025-05-02T15:00-07:00",
      "location": {
        "name": "Dairy Creek Golf Course",
        "city": "San Luis Obispo"
      },
      "festival": true
    },
    {
      "title": "Shabang 2025",
      "date": "2025-05-03T21:45-07:00",
      "location": {
        "name": "Dairy Creek Golf Course",
        "city": "San Luis Obispo"
      },
      "festival": true
    },
    {
      "title": "Odd Mob",
      "date": "2025-05-16T21:00-05:00",
      "location": {
        "name": "The Concourse Project",
        "city": "Austin"
      },
      "festival": false
    },
    {
      "title": "Odd Mob",
      "date": "2025-05-23T22:00-04:00",
      "location": {
        "name": "The Great Hall at Avant Gardner",
        "city": "New York"
      },
      "festival": false
    },
    {
      "title": "Kaskade, NGHTMRE, ALLEYCVT, D.O.D, GorillaT, HUGEL, JEV, Jackie Hollander, James Hype, Joel Corry, Level Up, Levity, MC4D, Nikita, the Wicked, Noizu, Odd Mob, ROSSY, SABAI, Subtronics, TWINSICK, Tom & Collins, $wooli, XANDRA, SLANDER",
      "date": "2025-05-31T17:00-04:00",
      "location": {
        "name": "RFK Festival Grounds",
        "city": "Washington"
      },
      "festival": false
    },
    {
      "title": "SLANDER, Yellow Claw, Bou, Le Youth, MK, AHEE, ARMNHMR, BIIANCO, Bassrush, Basstripper, Biscits, Cassian, Coco & Breezy, D.O.D, DANNY AVILA, Gene Farris, Godlands, Green Velvet, Hedex, Jackie Hollander, James Hype, Jessica Audiffred, Level Up, MOONLGHT, MPH, Matroda, MEDUZA, Mersiv, Netsky, Nikita, the Wicked, Odd Mob, OMNOM, Ravenscoon, San Pacho, SIDEPIECE, SampliFire, Subtronics, Tom & Collins, TroyBoi, Virtual Riot, Walker & Royce, Wilkinson, $wooli, YDG, Zen Selekta, Martin Ikin, \u00c6ON:MODE",
      "date": "2025-06-07T17:00-05:00",
      "location": {
        "name": "Huntington Bank Pavilion at Northerly Island",
        "city": "Chicago"
      },
      "festival": false
    }
  ]
}