{
  "name": "Angerfist",
  "monthly_listeners": 1059499,
  "followers": 528815,
  "verified": true,
  "top_cities": [
    {
      "city": "Amsterdam",
      "country": "NL",
      "region": "NH",
      "listeners": 74515
    },
    {
      "city": "Rotterdam",
      "country": "NL",
      "region": "ZH",
      "listeners": 56008
    },
    {
      "city": "Hamburg",
      "country": "DE",
      "region": "HH",
      "listeners": 35678
    },
    {
      "city": "Utrecht",
      "country": "NL",
      "region": "UT",
      "listeners": 30768
    },
    {
      "city": "Brussels",
      "country": "BE",
      "region": "BRU",
      "listeners": 27754
    }
  ],
  "social_links": {
    "facebook": "https://facebook.com/angerfistmusic/",
    "instagram": "https://instagram.com/angerfist_official",
    "twitter": "https://twitter.com/dj_angerfist",
    "wikipedia": "https://en.wikipedia.org/wiki/Angerfist"
  },
  "upcoming_concerts": [
    {
      "title": "Angerfist",
      "date": "2025-03-15T22:00+01:00",
      "location": {
        "name": "Lingotto Fiere Torino",
        "city": "Torino"
      },
      "festival": false
    },
    {
      "title": "Angerfist",
      "date": "2025-03-22T22:00+01:00",
      "location": {
        "name": "Komplex",
        "city": "Zurich"
      },
      "festival": false
    },
    {
      "title": "Angerfist",
      "date": "2025-03-29T17:30+01:00",
      "location": {
        "name": "Brabanthallen 's-Hertogenbosch",
        "city": "Ak 's-hertogenbosch"
      },
      "festival": false
    },
    {
      "title": "Angerfist",
      "date": "2025-03-29T20:00+01:00",
      "location": {
        "name": "Brabanthallen 's-Hertogenbosch",
        "city": "Ak 's-hertogenbosch"
      },
      "festival": false
    },
    {
      "title": "Angerfist, Sanctuary",
      "date": "2025-04-12T21:30+02:00",
      "location": {
        "name": "Stichting Vriendenkring Haaren 1940-1945",
        "city": "Haaren"
      },
      "festival": false
    },
    {
      "title": "Angerfist",
      "date": "2025-04-17T22:00+02:00",
      "location": {
        "name": "MEC GmbH Millenium Event Center",
        "city": "Braunschweig"
      },
      "festival": false
    },
    {
      "title": "Angerfist",
      "date": "2025-04-18T19:30+02:00",
      "location": {
        "name": "Parc Expo Rennes",
        "city": "Bruz"
      },
      "festival": false
    },
    {
      "title": "Angerfist",
      "date": "2025-04-18T22:00+02:00",
      "location": {
        "name": "Parc Expo Rennes",
        "city": "Bruz"
      },
      "festival": false
    },
    {
      "title": "Angerfist",
      "date": "2025-04-19T22:00+02:00",
      "location": {
        "name": "Cinema Hall Budapest",
        "city": "Budapest"
      },
      "festival": false
    },
    {
      "title": "Angerfist",
      "date": "2025-04-20T22:00+02:00",
      "location": {
        "name": "Turbinenhalle Oberhausen",
        "city": "Oberhausen"
      },
      "festival": false
    }
  ]
}