{
  "name": "Gorgon City",
  "monthly_listeners": 3214777,
  "followers": 501235,
  "verified": true,
  "top_cities": [
    {
      "city": "London",
      "country": "GB",
      "region": "ENG",
      "listeners": 121266
    },
    {
      "city": "Sydney",
      "country": "AU",
      "region": "NSW",
      "listeners": 80324
    },
    {
      "city": "Melbourne",
      "country": "AU",
      "region": "VIC",
      "listeners": 63942
    },
    {
      "city": "Dublin",
      "country": "IE",
      "region": "L",
      "listeners": 52862
    },
    {
      "city": "Birmingham",
      "country": "GB",
      "region": "ENG",
      "listeners": 50077
    }
  ],
  "social_links": {
    "facebook": "https://facebook.com/gorgoncity",
    "instagram": "https://instagram.com/gorgoncity",
    "twitter": "https://twitter.com/GorgonCity"
  },
  "upcoming_concerts": [
    {
      "title": "Gorgon City",
      "date": "2025-03-07T17:00+01:00",
      "location": {
        "name": "Deptak Nad \u017bylic\u0105",
        "city": "Szczyrk"
      },
      "festival": false
    },
    {
      "title": "Kerri Chandler, Sidney Charles, Gorgon City, LP Giobbi, Lili Chan",
      "date": "2025-03-15T14:00Z",
      "location": {
        "name": "Blackstone Street Warehouse",
        "city": "Liverpool"
      },
      "festival": false
    },
    {
      "title": "Gorgon City",
      "date": "2025-03-15T19:00Z",
      "location": {
        "name": "Blackstone Street Warehouse",
        "city": "Liverpool"
      },
      "festival": false
    },
    {
      "title": "Gorgon City",
      "date": "2025-03-21T19:00Z",
      "location": {
        "name": "The Warehouse",
        "city": "Leeds"
      },
      "festival": false
    },
    {
      "title": "Gorgon City, Ryan Arnold",
      "date": "2025-03-21T23:00Z",
      "location": {
        "name": "The Warehouse",
        "city": "Leeds"
      },
      "festival": false
    },
    {
      "title": "Gorgon City",
      "date": "2025-03-27T12:30-04:00",
      "location": {
        "name": "Toejam Backlot",
        "city": "Miami"
      },
      "festival": false
    },
    {
      "title": "Gorgon City",
      "date": "2025-03-28T21:00-06:00",
      "location": {
        "name": "11-11",
        "city": "El Paso"
      },
      "festival": false
    },
    {
      "title": "Gorgon City",
      "date": "2025-03-29T22:45-05:00",
      "location": {
        "name": "1902",
        "city": "San Antonio"
      },
      "festival": false
    },
    {
      "title": "Gorgon City",
      "date": "2025-04-18T22:00-04:00",
      "location": {
        "name": "The Ritz Ybor",
        "city": "Tampa"
      },
      "festival": false
    },
    {
      "title": "Gorgon City",
      "date": "2025-04-19T21:30-04:00",
      "location": {
        "name": "The Ave Live",
        "city": "Philadelphia"
      },
      "festival": false
    }
  ]
}