{
  "name": "Benny Benassi",
  "monthly_listeners": 8080218,
  "followers": 584919,
  "verified": true,
  "top_cities": [
    {
      "city": "Mexico City",
      "country": "MX",
      "region": "CMX",
      "listeners": 131559
    },
    {
      "city": "S\u00e3o Paulo",
      "country": "BR",
      "region": "SP",
      "listeners": 109089
    },
    {
      "city": "Sydney",
      "country": "AU",
      "region": "NSW",
      "listeners": 108261
    },
    {
      "city": "Milan",
      "country": "IT",
      "region": "25",
      "listeners": 108188
    },
    {
      "city": "Santiago",
      "country": "CL",
      "region": "RM",
      "listeners": 98706
    }
  ],
  "social_links": {
    "facebook": "https://facebook.com/bennybenassi",
    "instagram": "https://instagram.com/bennybenassi",
    "twitter": "https://twitter.com/bennybenassi",
    "wikipedia": "https://wikipedia.org/wiki/Benny_Benassi"
  },
  "upcoming_concerts": [
    {
      "title": "Benny Benassi",
      "date": "2025-03-21T22:00-04:00",
      "location": {
        "name": "The Ritz Ybor",
        "city": "Tampa"
      },
      "festival": false
    },
    {
      "title": "Benny Benassi, Solid Spark",
      "date": "2025-03-22T23:00-04:00",
      "location": {
        "name": "Marquee New York",
        "city": "New York City"
      },
      "festival": false
    },
    {
      "title": "Benny Benassi",
      "date": "2025-03-27T22:30-07:00",
      "location": {
        "name": "Hakkasan Nightclub",
        "city": "Las Vegas"
      },
      "festival": false
    },
    {
      "title": "Benny Benassi, Caleb Calloway, Maahez",
      "date": "2025-03-28T21:00-05:00",
      "location": {
        "name": "SILO",
        "city": "Dallas"
      },
      "festival": false
    },
    {
      "title": "Benny Benassi",
      "date": "2025-03-30T22:00-04:00",
      "location": {
        "name": "Jolene Sound Room Miami",
        "city": "Miami"
      },
      "festival": false
    },
    {
      "title": "Benny Benassi",
      "date": "2025-04-13T17:00+02:00",
      "location": {
        "name": "T\u00e9l\u00e9cabine de Tracouet Haute-Nendaz",
        "city": "Haute-nendaz"
      },
      "festival": false
    },
    {
      "title": "Benny Benassi",
      "date": "2025-05-23T11:00-07:00",
      "location": {
        "name": "TAO Beach Dayclub",
        "city": "Las Vegas"
      },
      "festival": false
    },
    {
      "title": "Chris Lake, deadmau5, Excision, Galantis, Kaskade, Louis The Child, Of The Trees, Rezz, RL Grime, Seven Lions, Sofi Tukker, Timmy Trumpet, SVDDEN DEATH, Zedd, Zeds Dead, Apashe, Benny Benassi, Detox Unit, Kai Wachi, KREAM, LP Giobbi, NGHTMRE, Dimension, PEEKABOO, Caspa, Ray Volpe, Tinlicker, Wax Motif, BONNIE X CLYDE, Distinct Motive, Heyz, Ian Asher, Jon Casey, Joshwa, Juelz, Kaleena Zanders, Lil Texas, MC4D, Skepsis, Westend, YOOKiE, Audiofreq, Caster, Control Freak, Darksiderz, Dennett, Muzz, Kreation, Dogma, Prosecute, Pyke, Rohaan, Seth David, Sherm, The Stooges, VKTM, Pyke, Taiki Nulight",
      "date": "2025-08-29T00:00-05:00",
      "location": {
        "name": "SeatGeek Stadium",
        "city": "Bridgeview"
      },
      "festival": false
    },
    {
      "title": "Benny Benassi",
      "date": "2025-08-28T22:30-07:00",
      "location": {
        "name": "Hakkasan Nightclub",
        "city": "Las Vegas"
      },
      "festival": false
    }
  ]
}