{
  "name": "Fatboy Slim",
  "monthly_listeners": 5336334,
  "followers": 1329559,
  "verified": true,
  "top_cities": [
    {
      "city": "London",
      "country": "GB",
      "region": "ENG",
      "listeners": 154586
    },
    {
      "city": "Sydney",
      "country": "AU",
      "region": "NSW",
      "listeners": 147704
    },
    {
      "city": "Melbourne",
      "country": "AU",
      "region": "VIC",
      "listeners": 136921
    },
    {
      "city": "Brisbane",
      "country": "AU",
      "region": "QLD",
      "listeners": 100052
    },
    {
      "city": "Dublin",
      "country": "IE",
      "region": "L",
      "listeners": 84491
    }
  ],
  "social_links": {
    "facebook": "https://facebook.com/fatboyslim",
    "instagram": "https://instagram.com/officialfatboyslim",
    "twitter": "https://twitter.com/fatboyslim",
    "wikipedia": "https://en.wikipedia.org/wiki/Fatboy_Slim"
  },
  "upcoming_concerts": [
    {
      "title": "Fatboy Slim",
      "date": "2025-03-14T17:00+08:00",
      "location": {
        "name": "Langley Park",
        "city": "Perth"
      },
      "festival": false
    },
    {
      "title": "Fatboy Slim",
      "date": "2025-03-15T16:00+11:00",
      "location": {
        "name": "Centennial Vineyards",
        "city": "Bowral"
      },
      "festival": false
    },
    {
      "title": "Fatboy Slim",
      "date": "2025-03-18T19:00+11:00",
      "location": {
        "name": "The Roundhouse UNSW",
        "city": "Kensington"
      },
      "festival": false
    },
    {
      "title": "Fatboy Slim",
      "date": "2025-03-21T16:00+10:30",
      "location": {
        "name": "Peter Lehmann Wines",
        "city": "Tanunda"
      },
      "festival": false
    },
    {
      "title": "Fatboy Slim",
      "date": "2025-03-22T16:00+11:00",
      "location": {
        "name": "Mt Duneed Estate",
        "city": "Waurn Ponds"
      },
      "festival": false
    },
    {
      "title": "Fatboy Slim",
      "date": "2025-03-23T15:00+10:00",
      "location": {
        "name": "Sirromet Wines",
        "city": "Mount Cotton"
      },
      "festival": false
    },
    {
      "title": "Fatboy Slim, Kharfi",
      "date": "2025-04-04T23:00+02:00",
      "location": {
        "name": "Magazzini Generali.",
        "city": "Milano"
      },
      "festival": false
    },
    {
      "title": "Ad\u00e9, Fatboy Slim, MC Solaar, Yodelice, The Avener, ade",
      "date": "2025-04-17T19:00+02:00",
      "location": {
        "name": "Le W",
        "city": "BOURGES"
      },
      "festival": false
    },
    {
      "title": "Fatboy Slim",
      "date": "2025-04-20T14:00+02:00",
      "location": {
        "name": "Nelson Mandela Forum",
        "city": "Firenze"
      },
      "festival": false
    },
    {
      "title": "Fatboy Slim",
      "date": "2025-04-21T17:00+02:00",
      "location": {
        "name": "Audiodrome Live Club",
        "city": "Torino"
      },
      "festival": false
    }
  ]
}