{
  "name": "Laidback Luke",
  "monthly_listeners": 2325290,
  "followers": 391977,
  "verified": true,
  "top_cities": [
    {
      "city": "Sydney",
      "country": "AU",
      "region": "NSW",
      "listeners": 60588
    },
    {
      "city": "Melbourne",
      "country": "AU",
      "region": "VIC",
      "listeners": 50084
    },
    {
      "city": "London",
      "country": "GB",
      "region": "ENG",
      "listeners": 38174
    },
    {
      "city": "Brisbane",
      "country": "AU",
      "region": "QLD",
      "listeners": 32946
    },
    {
      "city": "Amsterdam",
      "country": "NL",
      "region": "NH",
      "listeners": 31650
    }
  ],
  "social_links": {
    "facebook": "https://facebook.com/OfficialLaidbackluke/",
    "instagram": "https://instagram.com/laidbackluke/",
    "twitter": "https://twitter.com/LaidbackLuke",
    "wikipedia": "https://en.wikipedia.org/wiki/Laidback_Luke"
  },
  "upcoming_concerts": [
    {
      "title": "Laidback Luke",
      "date": "2025-03-08T22:00-06:00",
      "location": {
        "name": "BauHaus",
        "city": "Houston"
      },
      "festival": false
    },
    {
      "title": "Laidback Luke",
      "date": "2025-03-15T15:00+11:00",
      "location": {
        "name": "Sidney Myer Music Bowl",
        "city": "Melbourne"
      },
      "festival": false
    },
    {
      "title": "Laidback Luke",
      "date": "2025-03-16T19:00+10:30",
      "location": {
        "name": "Cloisters",
        "city": "Adelaide"
      },
      "festival": false
    },
    {
      "title": "Laidback Luke",
      "date": "2025-03-21T21:15-06:00",
      "location": {
        "name": "Sky SLC",
        "city": "Salt Lake City"
      },
      "festival": false
    },
    {
      "title": "Laidback Luke",
      "date": "2025-05-09T21:30-07:00",
      "location": {
        "name": "Audio SF",
        "city": "San Francisco"
      },
      "festival": false
    },
    {
      "title": "Laidback Luke",
      "date": "2025-05-16T21:00-06:00",
      "location": {
        "name": "Temple Ballroom",
        "city": "Edmonton"
      },
      "festival": false
    },
    {
      "title": "Laidback Luke",
      "date": "2025-05-23T23:00-05:00",
      "location": {
        "name": "TAO Chicago",
        "city": "Chicago"
      },
      "festival": false
    },
    {
      "title": "Laidback Luke",
      "date": "2025-05-24T21:00-04:00",
      "location": {
        "name": "Thomas Murphy Ballroom",
        "city": "Atlanta Station Number 4 Fire Station"
      },
      "festival": false
    },
    {
      "title": "Laidback Luke",
      "date": "2025-05-31T20:00-05:00",
      "location": {
        "name": "Barnato",
        "city": "Omaha"
      },
      "festival": false
    },
    {
      "title": "Laidback Luke",
      "date": "2025-07-12T22:00+02:00",
      "location": {
        "name": "Epic Prague",
        "city": "Star\u00e9 M\u011bsto"
      },
      "festival": false
    }
  ]
}