{
  "name": "Nicky Romero",
  "monthly_listeners": 5837105,
  "followers": 2185895,
  "verified": true,
  "top_cities": [
    {
      "city": "Sydney",
      "country": "AU",
      "region": "NSW",
      "listeners": 83420
    },
    {
      "city": "Stockholm",
      "country": "SE",
      "region": "AB",
      "listeners": 76114
    },
    {
      "city": "Mexico City",
      "country": "MX",
      "region": "CMX",
      "listeners": 74064
    },
    {
      "city": "Melbourne",
      "country": "AU",
      "region": "VIC",
      "listeners": 65625
    },
    {
      "city": "Amsterdam",
      "country": "NL",
      "region": "NH",
      "listeners": 65081
    }
  ],
  "social_links": {
    "facebook": "https://facebook.com/djnickyromero",
    "instagram": "https://instagram.com/nickyromero",
    "twitter": "https://twitter.com/nickyromero",
    "wikipedia": "https://en.wikipedia.org/wiki/Nicky_Romero"
  },
  "upcoming_concerts": [
    {
      "title": "Nicky Romero",
      "date": "2025-03-13T22:00-07:00",
      "location": {
        "name": "Zouk Nightclub",
        "city": "Las Vegas"
      },
      "festival": false
    },
    {
      "title": "Nicky Romero",
      "date": "2025-03-14T22:00-07:00",
      "location": {
        "name": "Harbour Convention Centre",
        "city": "Vancouver"
      },
      "festival": false
    },
    {
      "title": "Nicky Romero",
      "date": "2025-03-15T22:00-07:00",
      "location": {
        "name": "Nova SD",
        "city": "San Diego"
      },
      "festival": false
    },
    {
      "title": "Nicky Romero",
      "date": "2025-04-05T22:00+02:00",
      "location": {
        "name": "Palexpo Locarno",
        "city": "Locarno"
      },
      "festival": false
    },
    {
      "title": "Nicky Romero, Dannic, 4Y\u00db",
      "date": "2025-04-11T22:00-04:00",
      "location": {
        "name": "NOTO",
        "city": "Philadelphia"
      },
      "festival": false
    },
    {
      "title": "Nicky Romero",
      "date": "2025-04-12T22:00-04:00",
      "location": {
        "name": "DAER Nightclub South Florida",
        "city": "Hollywood"
      },
      "festival": false
    },
    {
      "title": "Nicky Romero",
      "date": "2025-04-18T22:30-07:00",
      "location": {
        "name": "Zouk Nightclub",
        "city": "Las Vegas"
      },
      "festival": false
    },
    {
      "title": "Nicky Romero",
      "date": "2025-04-19T22:00-07:00",
      "location": {
        "name": "45 East",
        "city": "Portland"
      },
      "festival": false
    },
    {
      "title": "Nicky Romero",
      "date": "2025-05-03T22:00-04:00",
      "location": {
        "name": "Club H\u00edpico de Santiago",
        "city": "Santiago"
      },
      "festival": false
    },
    {
      "title": "Nicky Romero",
      "date": "2025-05-17T22:00+02:00",
      "location": {
        "name": "Beach Park Aquabest",
        "city": "Best"
      },
      "festival": false
    }
  ]
}