{
  "name": "Gabry Ponte",
  "monthly_listeners": 17889567,
  "followers": 619407,
  "verified": true,
  "top_cities": [
    {
      "city": "Milan",
      "country": "IT",
      "region": "25",
      "listeners": 488333
    },
    {
      "city": "Rome",
      "country": "IT",
      "region": "62",
      "listeners": 286456
    },
    {
      "city": "Amsterdam",
      "country": "NL",
      "region": "NH",
      "listeners": 260557
    },
    {
      "city": "Hamburg",
      "country": "DE",
      "region": "HH",
      "listeners": 250474
    },
    {
      "city": "Munich",
      "country": "DE",
      "region": "BY",
      "listeners": 211728
    }
  ],
  "social_links": {
    "facebook": "https://facebook.com/gabryponte",
    "instagram": "https://instagram.com/gabryponte",
    "twitter": "https://twitter.com/gabryponte",
    "wikipedia": "https://en.wikipedia.org/wiki/Gabry_Ponte"
  },
  "upcoming_concerts": [
    {
      "title": "Gabry Ponte",
      "date": "2025-03-15T02:00+01:00",
      "location": {
        "name": "Demod\u00e9 Club",
        "city": "Modugno"
      },
      "festival": false
    },
    {
      "title": "Gabry Ponte",
      "date": "2025-03-15T21:00+01:00",
      "location": {
        "name": "Stadio Comunale Larino",
        "city": "Casacalenda"
      },
      "festival": false
    },
    {
      "title": "Gabry Ponte",
      "date": "2025-05-17T21:30+02:00",
      "location": {
        "name": "Donauinsel",
        "city": "Wien"
      },
      "festival": false
    },
    {
      "title": "Gabry Ponte",
      "date": "2025-06-28T16:00+02:00",
      "location": {
        "name": "Stadio San Siro",
        "city": "Milano"
      },
      "festival": false
    }
  ]
}