{
  "name": "Diplo",
  "monthly_listeners": 30339038,
  "followers": 2753033,
  "verified": true,
  "top_cities": [
    {
      "city": "Sydney",
      "country": "AU",
      "region": "NSW",
      "listeners": 452190
    },
    {
      "city": "Melbourne",
      "country": "AU",
      "region": "VIC",
      "listeners": 345137
    },
    {
      "city": "London",
      "country": "GB",
      "region": "ENG",
      "listeners": 334141
    },
    {
      "city": "S\u00e3o Paulo",
      "country": "BR",
      "region": "SP",
      "listeners": 331248
    },
    {
      "city": "Brisbane",
      "country": "AU",
      "region": "QLD",
      "listeners": 310839
    }
  ],
  "social_links": {
    "facebook": "https://facebook.com/diplo",
    "instagram": "https://instagram.com/diplo",
    "twitter": "https://twitter.com/diplo"
  },
  "upcoming_concerts": [
    {
      "title": "Diplo",
      "date": "2025-03-21T22:30-07:00",
      "location": {
        "name": "XS Nightclub",
        "city": "Las Vegas"
      },
      "festival": false
    },
    {
      "title": "Diplo, HUGEL",
      "date": "2025-03-27T12:00-04:00",
      "location": {
        "name": "Hyde Beach",
        "city": "Miami Beach"
      },
      "festival": false
    },
    {
      "title": "Diplo",
      "date": "2025-03-29T20:00-04:00",
      "location": {
        "name": "E11EVEN Miami",
        "city": "Miami"
      },
      "festival": false
    },
    {
      "title": "Diplo",
      "date": "2025-04-04T22:30-07:00",
      "location": {
        "name": "XS Nightclub",
        "city": "Las Vegas"
      },
      "festival": false
    },
    {
      "title": "Two Step Inn 2025",
      "date": "2025-04-05T12:00-05:00",
      "location": {
        "name": "San Gabriel Park",
        "city": "Georgetown"
      },
      "festival": true
    },
    {
      "title": "Diplo",
      "date": "2025-04-17T13:00+08:00",
      "location": {
        "name": "Savaya",
        "city": "Kabupaten Badung"
      },
      "festival": false
    },
    {
      "title": "Diplo",
      "date": "2025-04-19T17:00+04:00",
      "location": {
        "name": "Bohemia Beach Club",
        "city": "\u062f\u0628\u064a"
      },
      "festival": false
    },
    {
      "title": "Zach Bryan, Jelly Roll, Luke Combs, T-Pain, Creed, Backstreet Boys, Diplo, Myles Kennedy",
      "date": "2025-04-25T12:00-07:00",
      "location": {
        "name": "Empire Polo Club",
        "city": "Indio"
      },
      "festival": false
    },
    {
      "title": "Diplo",
      "date": "2025-05-03T11:00-07:00",
      "location": {
        "name": "Encore Beach Club",
        "city": "Las Vegas"
      },
      "festival": false
    },
    {
      "title": "Diplo",
      "date": "2025-05-10T22:30-07:00",
      "location": {
        "name": "XS Las Vegas",
        "city": "Las Vegas"
      },
      "festival": false
    }
  ]
}