{
  "name": "Eli Brown",
  "monthly_listeners": 2766029,
  "followers": 145126,
  "verified": true,
  "top_cities": [
    {
      "city": "Amsterdam",
      "country": "NL",
      "region": "NH",
      "listeners": 43243
    },
    {
      "city": "Melbourne",
      "country": "AU",
      "region": "VIC",
      "listeners": 43081
    },
    {
      "city": "Hamburg",
      "country": "DE",
      "region": "HH",
      "listeners": 40702
    },
    {
      "city": "Berlin",
      "country": "DE",
      "region": "BE",
      "listeners": 40079
    },
    {
      "city": "Sydney",
      "country": "AU",
      "region": "NSW",
      "listeners": 37794
    }
  ],
  "social_links": {
    "facebook": "https://facebook.com/elibrownmusic",
    "instagram": "https://instagram.com/elibrownbeats",
    "twitter": "https://twitter.com/elibrownbeats"
  },
  "upcoming_concerts": [
    {
      "title": "Eli Brown",
      "date": "2025-03-07T23:59+01:00",
      "location": {
        "name": "INPUT High Fidelity Dance Club",
        "city": "Barcelona"
      },
      "festival": false
    },
    {
      "title": "Eli Brown",
      "date": "2025-03-08T22:00+01:00",
      "location": {
        "name": "Epic Prague",
        "city": "Star\u00e9 M\u011bsto"
      },
      "festival": false
    },
    {
      "title": "Eli Brown",
      "date": "2025-03-14T23:00+01:00",
      "location": {
        "name": "Das Zimmer Mannheim",
        "city": "Mannheim"
      },
      "festival": false
    },
    {
      "title": "Eli Brown",
      "date": "2025-03-28T12:00-04:00",
      "location": {
        "name": "FPL Solar Amphitheater at Bayfront Park",
        "city": "Miami"
      },
      "festival": false
    },
    {
      "title": "Eli Brown",
      "date": "2025-03-29T22:00-05:00",
      "location": {
        "name": "Radius",
        "city": "Chicago"
      },
      "festival": false
    },
    {
      "title": "999999999, Above & Beyond, Adam Beyer, AFROJACK, Alesso, Anyma, Solomun, Armin van Buuren, ARTBAT, Axwell, Boris Brejcha, Carl Cox, Charlotte de Witte, Chase & Status, deadmau5, Pendulum, Eli Brown, Dom Dolla, John Summit, Four Tet, Gesaffelstein, Hardwell, I Hate Models, LSDREAM, CloZee, Martin Garrix, Mau P, Miss Monique, Nero, NGHTMRE, Sullivan King, Richie Hawtin, Subtronics, Ti\u00ebsto, Zedd, Zeds Dead",
      "date": "2025-03-30T12:00-04:00",
      "location": {
        "name": "FPL Solar Amphitheater at Bayfront Park",
        "city": "Miami"
      },
      "festival": false
    },
    {
      "title": "Eli Brown",
      "date": "2025-04-05T23:00+03:00",
      "location": {
        "name": "\u00c4\u00e4niwalli",
        "city": "Helsinki"
      },
      "festival": false
    },
    {
      "title": "Still Woozy, Austin Millz, Beth Gibbons, Chris Lorenzo, DJ Gigola, Disco Lines, Djo, Durty, Eli Brown, Glass Beams, Glixen, The Go-Go's, Judeline, Linska, Mau P, Miluhska, Moon Boots, Nazzy the Mic, Parcels, SAINt JHN, Sara Landry, Shermanology, TOPS, Tyla, Vintage Culture, d4vd, Eyedress, Ginger Root, underscores",
      "date": "2025-04-11T19:00-07:00",
      "location": {
        "name": "Empire Polo Club",
        "city": "Indio"
      },
      "festival": false
    },
    {
      "title": "Alok, Dennis Cruz, Beltran, AFROJACK, Sparrow & Barbossa, Dixon, Jimi Jules, Yulia Niko, Eli Brown, DIXON",
      "date": "2025-04-11T22:00-07:00",
      "location": {
        "name": "Sound Nightclub",
        "city": "Los Angeles"
      },
      "festival": false
    },
    {
      "title": "Eli Brown",
      "date": "2025-04-18T22:00-07:00",
      "location": {
        "name": "Sound Nightclub",
        "city": "Los Angeles"
      },
      "festival": false
    }
  ]
}