{
  "name": "Oliver Heldens",
  "monthly_listeners": 7373972,
  "followers": 1057355,
  "verified": true,
  "top_cities": [
    {
      "city": "London",
      "country": "GB",
      "region": "ENG",
      "listeners": 131691
    },
    {
      "city": "Amsterdam",
      "country": "NL",
      "region": "NH",
      "listeners": 120624
    },
    {
      "city": "Sydney",
      "country": "AU",
      "region": "NSW",
      "listeners": 116666
    },
    {
      "city": "Melbourne",
      "country": "AU",
      "region": "VIC",
      "listeners": 97451
    },
    {
      "city": "Mexico City",
      "country": "MX",
      "region": "CMX",
      "listeners": 81441
    }
  ],
  "social_links": {
    "facebook": "https://facebook.com/oliverheldens",
    "instagram": "https://instagram.com/oliverheldens",
    "twitter": "https://twitter.com/oliverheldens",
    "wikipedia": "https://en.wikipedia.org/wiki/Oliver_Heldens"
  },
  "upcoming_concerts": [
    {
      "title": "Oliver Heldens",
      "date": "2025-03-21T20:00+02:00",
      "location": {
        "name": "Laminor Arena",
        "city": "Pope\u015fti-rom\u00e2ni"
      },
      "festival": false
    },
    {
      "title": "Steve Aoki, AFROJACK, Chitas, Crankdat, Gil Glaze, LTJ Bukem, MR.BLACK, Nifra, Oliver Heldens, Said The Sky, Sam Feldt, Sullivan King, TOKiMONSTA, Timmy Trumpet, Miss Monique",
      "date": "2025-03-28T17:00-04:00",
      "location": {
        "name": "Bayfront Park",
        "city": "Miami"
      },
      "festival": false
    },
    {
      "title": "Oliver Heldens",
      "date": "2025-03-29T22:00-04:00",
      "location": {
        "name": "Believe Music Hall",
        "city": "Atlanta"
      },
      "festival": false
    },
    {
      "title": "Oliver Heldens",
      "date": "2025-04-24T14:00+02:00",
      "location": {
        "name": "Marcos Pub Livigno",
        "city": "Livigno"
      },
      "festival": false
    },
    {
      "title": "Oliver Heldens",
      "date": "2025-04-25T23:00+02:00",
      "location": {
        "name": "Bootshaus Cologne",
        "city": "Cologne"
      },
      "festival": false
    },
    {
      "title": "Oliver Heldens",
      "date": "2025-05-02T17:00-05:00",
      "location": {
        "name": "Parque Norte Medell\u00edn",
        "city": "Medell\u00edn"
      },
      "festival": false
    },
    {
      "title": "Oliver Heldens",
      "date": "2025-05-03T20:30-04:00",
      "location": {
        "name": "Club H\u00edpico de Santiago",
        "city": "Santiago"
      },
      "festival": false
    },
    {
      "title": "Oliver Heldens, Two Friends",
      "date": "2025-05-25T07:00-04:00",
      "location": {
        "name": "Indianapolis Motor Speedway",
        "city": "Indianapolis"
      },
      "festival": false
    },
    {
      "title": "Oliver Heldens",
      "date": "2025-07-19T20:30+02:00",
      "location": {
        "name": "Weeze Airport",
        "city": "Weeze"
      },
      "festival": false
    }
  ]
}