{
  "name": "HUGEL",
  "monthly_listeners": 19700564,
  "followers": 431530,
  "verified": true,
  "top_cities": [
    {
      "city": "Amsterdam",
      "country": "NL",
      "region": "NH",
      "listeners": 341550
    },
    {
      "city": "Milan",
      "country": "IT",
      "region": "25",
      "listeners": 247860
    },
    {
      "city": "Hamburg",
      "country": "DE",
      "region": "HH",
      "listeners": 233604
    },
    {
      "city": "Madrid",
      "country": "ES",
      "region": "MD",
      "listeners": 232776
    },
    {
      "city": "Sydney",
      "country": "AU",
      "region": "NSW",
      "listeners": 227592
    }
  ],
  "social_links": {
    "facebook": "https://facebook.com/hugelmusic",
    "instagram": "https://instagram.com/hugelthug",
    "twitter": "https://twitter.com/hugelthug",
    "wikipedia": "https://de.wikipedia.org/wiki/Hugel_(DJ)"
  },
  "upcoming_concerts": [
    {
      "title": "HUGEL",
      "date": "2025-03-05T14:30+01:00",
      "location": {
        "name": "BA\u00cfES COURCHEVEL",
        "city": "Courchevel"
      },
      "festival": false
    },
    {
      "title": "HUGEL",
      "date": "2025-03-08T22:00+02:00",
      "location": {
        "name": "Regional Business Center",
        "city": "Timi\u0219oara"
      },
      "festival": false
    },
    {
      "title": "HUGEL",
      "date": "2025-03-17T17:00+01:00",
      "location": {
        "name": "Alpe d'Huez",
        "city": "Alpe D\u2019huez"
      },
      "festival": false
    },
    {
      "title": "HUGEL",
      "date": "2025-03-22T22:00+01:00",
      "location": {
        "name": "Pandora Sevilla",
        "city": "Sevilla"
      },
      "festival": false
    },
    {
      "title": "Camilo Franco, HUGEL, Freddy Bello, Los Canarios, Alberto Dimeo",
      "date": "2025-03-23T17:00+01:00",
      "location": {
        "name": "Pacha Barcelona",
        "city": "Barcelona"
      },
      "festival": false
    },
    {
      "title": "Los Canarios, Felipe Alemais, HUGEL, Alberto Dimeo, Freddy Bello, Daniel Jimenez, DJ Camilo",
      "date": "2025-03-23T23:00+01:00",
      "location": {
        "name": "Pacha Barcelona ",
        "city": "Barcelona"
      },
      "festival": false
    },
    {
      "title": "HUGEL, Juany Bravo, Maahez, Mahmut Orhan, M\u00cbSTIZA, Shimza",
      "date": "2025-03-25T23:00-04:00",
      "location": {
        "name": "Club Space Miami",
        "city": "Miami"
      },
      "festival": false
    },
    {
      "title": "Diplo, HUGEL",
      "date": "2025-03-27T12:00-04:00",
      "location": {
        "name": "Hyde Beach",
        "city": "Miami Beach"
      },
      "festival": false
    },
    {
      "title": "HUGEL",
      "date": "2025-03-30T19:00-04:00",
      "location": {
        "name": "Factory Town",
        "city": "Miami"
      },
      "festival": false
    },
    {
      "title": "HUGEL",
      "date": "2025-04-04T11:00-07:00",
      "location": {
        "name": "Encore Beach Club",
        "city": "Las Vegas"
      },
      "festival": false
    }
  ]
}