{
  "name": "Brennan Heart",
  "monthly_listeners": 2087770,
  "followers": 326753,
  "verified": true,
  "top_cities": [
    {
      "city": "Amsterdam",
      "country": "NL",
      "region": "NH",
      "listeners": 123307
    },
    {
      "city": "Rotterdam",
      "country": "NL",
      "region": "ZH",
      "listeners": 92028
    },
    {
      "city": "Hamburg",
      "country": "DE",
      "region": "HH",
      "listeners": 75753
    },
    {
      "city": "Utrecht",
      "country": "NL",
      "region": "UT",
      "listeners": 51523
    },
    {
      "city": "Brussels",
      "country": "BE",
      "region": "BRU",
      "listeners": 50155
    }
  ],
  "social_links": {
    "facebook": "https://facebook.com/djbrennanheart/",
    "instagram": "https://instagram.com/djbrennanheart/",
    "twitter": "https://twitter.com/djbrennanheart",
    "wikipedia": "https://nl.wikipedia.org/wiki/Brennan_Heart"
  },
  "upcoming_concerts": [
    {
      "title": "Brennan Heart, Atmozfears, ANDY SVGE, Sound Rush",
      "date": "2025-04-12T23:00+02:00",
      "location": {
        "name": "T7 Paris",
        "city": "Paris"
      },
      "festival": false
    },
    {
      "title": "Coone, Brennan Heart, DJ Coone, Jester, Jordiz, Jester",
      "date": "2025-04-25T22:30+01:00",
      "location": {
        "name": "Ministry Of Sound",
        "city": "London"
      },
      "festival": false
    },
    {
      "title": "Electric Love Festival 2025",
      "date": "2025-07-03T00:00+02:00",
      "location": {
        "name": "Salzburgring",
        "city": "Plainfeld"
      },
      "festival": true
    },
    {
      "title": "Broederliefde, Lil Kleine, Frenna, Bankzitters, STUK, Ronnie Flex, Roxy Dekker, Yves Berendse, Guus Meeuwis, Solstice, Galactixx, Phuture Noize, Dual Damage, Unresolved, Radical Redemption, Russo, Trobi, Turfy Gang, Kris Kross Amsterdam, Outsiders, D-Block & S-te-Fan, Brennan Heart, Regain, Deluzion, Kruelty, Bmberjck, Noxiouz, Vertile, Rejecta, DEEZL, Zany, Crypsis, Akimbo, Satirized, Samynator, Monique Smit, Gotu Jim, Cristian D",
      "date": "2025-07-04T18:00+02:00",
      "location": {
        "name": "WiSH Outdoor",
        "city": "Asten"
      },
      "festival": false
    }
  ]
}