{
  "name": "Netsky",
  "monthly_listeners": 1914745,
  "followers": 460584,
  "verified": true,
  "top_cities": [
    {
      "city": "London",
      "country": "GB",
      "region": "ENG",
      "listeners": 75034
    },
    {
      "city": "Brussels",
      "country": "BE",
      "region": "BRU",
      "listeners": 74656
    },
    {
      "city": "Auckland",
      "country": "NZ",
      "region": "AUK",
      "listeners": 57880
    },
    {
      "city": "Prague",
      "country": "CZ",
      "region": "10",
      "listeners": 41573
    },
    {
      "city": "Perth",
      "country": "AU",
      "region": "WA",
      "listeners": 34077
    }
  ],
  "social_links": {
    "facebook": "https://facebook.com/netskymusic",
    "instagram": "https://instagram.com/netskyofficial",
    "twitter": "https://twitter.com/netskymusic",
    "wikipedia": "https://en.wikipedia.org/wiki/Netsky_(musician)"
  },
  "upcoming_concerts": [
    {
      "title": "Netsky",
      "date": "2025-03-28T17:00-07:00",
      "location": {
        "name": "NOS Events Center",
        "city": "San Bernardino"
      },
      "festival": false
    },
    {
      "title": "Rezz, Louis The Child, NGHTMRE, Of The Trees, Said The Sky, Netsky, it's murph, Kaivon, Hybrid Minds, Zero, Jon Casey, Edward Joseph",
      "date": "2025-04-04T17:00-07:00",
      "location": {
        "name": "Phoenix Raceway",
        "city": "Avondale"
      },
      "festival": false
    },
    {
      "title": "Netsky",
      "date": "2025-04-04T21:30-04:00",
      "location": {
        "name": "The Ave Live",
        "city": "Philadelphia"
      },
      "festival": false
    },
    {
      "title": "2AR, 7L, Vicious, AHEE, Algo, Dack Janiels, Andromedik, Anime, Automhate, VYLE, Badklaat, DirtySnatcha, Subfiltronik, Benda, Vastive, BERNZIKIAL, BIJOU, Borgore, Chango, Chibs, Codd Dubz, deadgirl, Hexx, Drinkurwater, Eptic, Excision, FuntCase, Versa, GHENGAR, Goon, GorillaT, Habstrakt, Haylee Wood, HE$H, Hukae, IMANU, Jade Cicada, JEANIE, Kill Safari, Lavern, LAYZ, Kompany, LUCI, MAYLAY, Midnight Tyrannosaurus, MVRDA, MYSTRVS, MYTHM, Netsky, Noizu, OG Nixin, Ray Volpe, Riot Ten, RL Grime, Ship Wrek, Shiverz, SIDEQUEST, Skellytn, Softest Hard, SVDDEN DEATH, SWANDO, Taiki Nulight, The Resistance, TroyBoi, Usaybflow, VKTM, Wooli, YDG, Zero, Zingara, Steller, Zomboy, Chango, Jeanie, Layz, Shiverz, SIDEQUEST, Vyle, $wooli, YDG",
      "date": "2025-05-30T00:00-04:00",
      "location": {
        "name": "Orlando Amphitheater - Central Florida Fairgrounds",
        "city": "Orlando"
      },
      "festival": false
    },
    {
      "title": "SLANDER, Yellow Claw, Bou, Le Youth, MK, AHEE, ARMNHMR, BIIANCO, Bassrush, Basstripper, Biscits, Cassian, Coco & Breezy, D.O.D, DANNY AVILA, Gene Farris, Godlands, Green Velvet, Hedex, Jackie Hollander, James Hype, Jessica Audiffred, Level Up, MOONLGHT, MPH, Matroda, MEDUZA, Mersiv, Netsky, Nikita, the Wicked, Odd Mob, OMNOM, Ravenscoon, San Pacho, SIDEPIECE, SampliFire, Subtronics, Tom & Collins, TroyBoi, Virtual Riot, Walker & Royce, Wilkinson, $wooli, YDG, Zen Selekta, Martin Ikin, \u00c6ON:MODE",
      "date": "2025-06-07T17:00-05:00",
      "location": {
        "name": "Huntington Bank Pavilion at Northerly Island",
        "city": "Chicago"
      },
      "festival": false
    },
    {
      "title": "Knife Party, 4am Kru, A Little Sound, Amplify, Andy C, Basslayerz, Benny L, Bou, CLIPZ, Dillinja, Disrupta, Ellis Dee, Flava D, Flowdan, Friction, Grooverider, Hedex, K Motionz, Kleu, Lens, Logan D, Netsky, Nu Elementz, Ragga Twins, RatPack, Ratty, Rusko, SAL\u00d2, SOTA, Serum, Sub Zero, Subsonic, Tantrum Desire, Turno, Wilkinson",
      "date": "2025-08-09T12:00+01:00",
      "location": {
        "name": "The National Bowl",
        "city": "Milton Keynes"
      },
      "festival": false
    }
  ]
}