{
  "name": "The Chainsmokers",
  "monthly_listeners": 47012045,
  "followers": 20898176,
  "verified": true,
  "top_cities": [
    {
      "city": "Jakarta",
      "country": "ID",
      "region": "JK",
      "listeners": 824588
    },
    {
      "city": "Sydney",
      "country": "AU",
      "region": "NSW",
      "listeners": 608374
    },
    {
      "city": "S\u00e3o Paulo",
      "country": "BR",
      "region": "SP",
      "listeners": 598626
    },
    {
      "city": "Melbourne",
      "country": "AU",
      "region": "VIC",
      "listeners": 475149
    },
    {
      "city": "London",
      "country": "GB",
      "region": "ENG",
      "listeners": 409661
    }
  ],
  "social_links": {
    "facebook": "https://facebook.com/thechainsmokers",
    "instagram": "https://instagram.com/thechainsmokers",
    "twitter": "https://twitter.com/thechainsmokers",
    "wikipedia": "https://en.wikipedia.org/wiki/The_Chainsmokers"
  },
  "upcoming_concerts": [
    {
      "title": "The Chainsmokers",
      "date": "2025-03-15T22:30-07:00",
      "location": {
        "name": "XS Nightclub",
        "city": "Las Vegas"
      },
      "festival": false
    },
    {
      "title": "The Chainsmokers",
      "date": "2025-03-22T12:00+08:00",
      "location": {
        "name": "Dajia Riverside Park",
        "city": "Taipei"
      },
      "festival": false
    },
    {
      "title": "The Chainsmokers",
      "date": "2025-03-23T13:30+08:00",
      "location": {
        "name": "Yangcheng Lake Tourist Resort",
        "city": "Su Zhou Shi"
      },
      "festival": false
    },
    {
      "title": "The Chainsmokers",
      "date": "2025-04-04T17:00-06:00",
      "location": {
        "name": "Parque Fundidora",
        "city": "Monterrey"
      },
      "festival": false
    },
    {
      "title": "The Chainsmokers",
      "date": "2025-05-22T20:00-04:00",
      "location": {
        "name": "The Brooklyn Mirage at Avant Gardner",
        "city": "New York"
      },
      "festival": false
    },
    {
      "title": "The Chainsmokers",
      "date": "2025-05-23T22:00-04:00",
      "location": {
        "name": "The Brooklyn Mirage at Avant Gardner",
        "city": "New York"
      },
      "festival": false
    },
    {
      "title": "Alle Farben, The Chainsmokers, badm\u00f3mzjay, Esther Graf",
      "date": "2025-06-07T15:00+02:00",
      "location": {
        "name": "EXPO Plaza",
        "city": "HANNOVER"
      },
      "festival": false
    },
    {
      "title": "The Chainsmokers",
      "date": "2025-06-13T22:30-07:00",
      "location": {
        "name": "XS Nightclub",
        "city": "Las Vegas"
      },
      "festival": false
    },
    {
      "title": "The Chainsmokers",
      "date": "2025-06-20T17:00-04:00",
      "location": {
        "name": "Lansdowne Park",
        "city": "Ottawa"
      },
      "festival": false
    },
    {
      "title": "The Chainsmokers",
      "date": "2025-06-27T22:30-07:00",
      "location": {
        "name": "XS Nightclub",
        "city": "Las Vegas"
      },
      "festival": false
    }
  ]
}