{
  "name": "Joel Corry",
  "monthly_listeners": 10722393,
  "followers": 451045,
  "verified": true,
  "top_cities": [
    {
      "city": "London",
      "country": "GB",
      "region": "ENG",
      "listeners": 238199
    },
    {
      "city": "Sydney",
      "country": "AU",
      "region": "NSW",
      "listeners": 211622
    },
    {
      "city": "Melbourne",
      "country": "AU",
      "region": "VIC",
      "listeners": 162994
    },
    {
      "city": "Dublin",
      "country": "IE",
      "region": "L",
      "listeners": 139154
    },
    {
      "city": "S\u00e3o Paulo",
      "country": "BR",
      "region": "SP",
      "listeners": 136281
    }
  ],
  "social_links": {
    "facebook": "https://facebook.com/joelcorry",
    "instagram": "https://instagram.com/joelcorry",
    "twitter": "https://twitter.com/joelcorry"
  },
  "upcoming_concerts": [
    {
      "title": "Joel Corry",
      "date": "2025-03-22T22:00Z",
      "location": {
        "name": "Ministry Of Sound",
        "city": "London"
      },
      "festival": false
    },
    {
      "title": "Joel Corry",
      "date": "2025-05-10T21:00-06:00",
      "location": {
        "name": "Union Hall",
        "city": "Edmonton"
      },
      "festival": false
    },
    {
      "title": "High Contrast, Alan Fitzpatrick, D.O.D, Joel Corry, Peter Andre, The Coral",
      "date": "2025-05-24T12:00+01:00",
      "location": {
        "name": "Silverlake Stadium",
        "city": "Eastleigh"
      },
      "festival": false
    },
    {
      "title": "Andy C, Alan Fitzpatrick, Bru-C, D.O.D, Dutty Moonshine Big Band, High Contrast, Joel Corry",
      "date": "2025-05-25T12:00+01:00",
      "location": {
        "name": "Silverlake Stadium",
        "city": "Eastleigh"
      },
      "festival": false
    },
    {
      "title": "Kaskade, NGHTMRE, ALLEYCVT, D.O.D, GorillaT, HUGEL, JEV, Jackie Hollander, James Hype, Joel Corry, Level Up, Levity, MC4D, Nikita, the Wicked, Noizu, Odd Mob, ROSSY, SABAI, Subtronics, TWINSICK, Tom & Collins, $wooli, XANDRA, SLANDER",
      "date": "2025-05-31T17:00-04:00",
      "location": {
        "name": "RFK Festival Grounds",
        "city": "Washington"
      },
      "festival": false
    },
    {
      "title": "Joel Corry",
      "date": "2025-06-28T11:00-04:00",
      "location": {
        "name": "Ocean Resort Casino - HQ2 Beachclub",
        "city": "Atlantic City"
      },
      "festival": false
    },
    {
      "title": "Rednex, Vengaboys, Snap, Blasterjaxx, Mia Julia, KSHMR, Joel Corry, Jerome",
      "date": "2025-07-18T17:00+02:00",
      "location": {
        "name": "Festplatz",
        "city": "KALTENKIRCHEN"
      },
      "festival": false
    }
  ]
}