{
  "name": "Massano",
  "monthly_listeners": 1862623,
  "followers": 129466,
  "verified": true,
  "top_cities": [
    {
      "city": "Buenos Aires",
      "country": "AR",
      "region": "C",
      "listeners": 49019
    },
    {
      "city": "Mexico City",
      "country": "MX",
      "region": "CMX",
      "listeners": 30878
    },
    {
      "city": "S\u00e3o Paulo",
      "country": "BR",
      "region": "SP",
      "listeners": 26487
    },
    {
      "city": "Istanbul",
      "country": "TR",
      "region": "34",
      "listeners": 26113
    },
    {
      "city": "Amsterdam",
      "country": "NL",
      "region": "NH",
      "listeners": 23100
    }
  ],
  "social_links": {
    "facebook": "https://facebook.com/massanomusic",
    "instagram": "https://instagram.com/massanomusic",
    "twitter": "https://twitter.com/massanomusic"
  },
  "upcoming_concerts": [
    {
      "title": "Henri Bergmann, Massano",
      "date": "2025-03-15T22:00Z",
      "location": {
        "name": "HERE",
        "city": "London"
      },
      "festival": false
    },
    {
      "title": "Roswitha, Beswerda, Axel Haube, Massano",
      "date": "2025-03-22T23:00+01:00",
      "location": {
        "name": "Het Sieraad",
        "city": "Amsterdam"
      },
      "festival": false
    },
    {
      "title": "Massano",
      "date": "2025-03-27T20:00-04:00",
      "location": {
        "name": "Toejam Backlot",
        "city": "Miami"
      },
      "festival": false
    },
    {
      "title": "Massano",
      "date": "2025-03-29T14:00-04:00",
      "location": {
        "name": "Bayfront Park",
        "city": "Miami"
      },
      "festival": false
    },
    {
      "title": "Massano",
      "date": "2025-04-04T23:00+03:00",
      "location": {
        "name": "Noblessneri valukoda",
        "city": "Tallinn"
      },
      "festival": false
    },
    {
      "title": "Massano",
      "date": "2025-04-12T12:00-07:00",
      "location": {
        "name": "Empire Polo Club",
        "city": "Indio"
      },
      "festival": false
    },
    {
      "title": "Alok, Massano",
      "date": "2025-04-19T00:00-07:00",
      "location": {
        "name": "Empire Polo Club",
        "city": "Indio"
      },
      "festival": false
    },
    {
      "title": "Massano",
      "date": "2025-04-26T21:00+03:00",
      "location": {
        "name": "Bolivar Beach Bar",
        "city": "Athens"
      },
      "festival": false
    },
    {
      "title": "Massano",
      "date": "2025-05-01T17:00+02:00",
      "location": {
        "name": "Afrobar Catania",
        "city": "Itala Marina"
      },
      "festival": false
    },
    {
      "title": "Massano",
      "date": "2025-05-09T12:00+02:00",
      "location": {
        "name": "The Ostrich - Cape Town",
        "city": "South Africa"
      },
      "festival": false
    }
  ]
}