{
  "name": "Tom Enzy",
  "monthly_listeners": 1685758,
  "followers": 35429,
  "verified": true,
  "top_cities": [
    {
      "city": "Madrid",
      "country": "ES",
      "region": "MD",
      "listeners": 21519
    },
    {
      "city": "S\u00e3o Paulo",
      "country": "BR",
      "region": "SP",
      "listeners": 20388
    },
    {
      "city": "Amsterdam",
      "country": "NL",
      "region": "NH",
      "listeners": 20350
    },
    {
      "city": "Santiago",
      "country": "CL",
      "region": "RM",
      "listeners": 20337
    },
    {
      "city": "Hamburg",
      "country": "DE",
      "region": "HH",
      "listeners": 17700
    }
  ],
  "social_links": {
    "facebook": "https://facebook.com/tomenzy/",
    "instagram": "https://instagram.com/djtomenzy",
    "twitter": "https://twitter.com/djtomenzy"
  },
  "upcoming_concerts": [
    {
      "title": "Tom Enzy",
      "date": "2025-03-14T20:00+07:00",
      "location": {
        "name": "APT 101",
        "city": "Watthana"
      },
      "festival": false
    },
    {
      "title": "Tom Enzy",
      "date": "2025-03-15T21:00+08:00",
      "location": {
        "name": "C\u00c9 LA VI Singapore",
        "city": "Skypark"
      },
      "festival": false
    },
    {
      "title": "Tom Enzy",
      "date": "2025-03-16T20:00+07:00",
      "location": {
        "name": "Carpe Diem Beach Club - Phuket",
        "city": "\u0e15\u0e33\u0e1a\u0e25\u0e40\u0e0a\u0e34\u0e07\u0e17\u0e30\u0e40\u0e25"
      },
      "festival": false
    },
    {
      "title": "Tom Enzy",
      "date": "2025-03-18T20:00+08:00",
      "location": {
        "name": "Desa Kitsun\u00e9",
        "city": "Kabupaten Badung"
      },
      "festival": false
    },
    {
      "title": "Tom Enzy",
      "date": "2025-03-25T22:00-04:00",
      "location": {
        "name": "Club Space",
        "city": "Miami"
      },
      "festival": false
    },
    {
      "title": "Tom Enzy",
      "date": "2025-03-27T15:00-04:00",
      "location": {
        "name": "Nikki Beach",
        "city": "Miami Beach"
      },
      "festival": false
    },
    {
      "title": "Tom Enzy",
      "date": "2025-03-29T20:00-04:00",
      "location": {
        "name": "InterContinental Miami",
        "city": "Miami"
      },
      "festival": false
    },
    {
      "title": "Tom Enzy",
      "date": "2025-04-04T22:00-07:00",
      "location": {
        "name": "Halcyon SF",
        "city": "San Francisco"
      },
      "festival": false
    },
    {
      "title": "Tom Enzy",
      "date": "2025-04-26T23:00+01:00",
      "location": {
        "name": "Egg London Nightclub",
        "city": "London"
      },
      "festival": false
    }
  ]
}