{
  "name": "Kaskade",
  "monthly_listeners": 5492676,
  "followers": 977449,
  "verified": true,
  "top_cities": [
    {
      "city": "Los Angeles",
      "country": "US",
      "region": "CA",
      "listeners": 111170
    },
    {
      "city": "Sydney",
      "country": "AU",
      "region": "NSW",
      "listeners": 92974
    },
    {
      "city": "Melbourne",
      "country": "AU",
      "region": "VIC",
      "listeners": 77210
    },
    {
      "city": "New York City",
      "country": "US",
      "region": "NY",
      "listeners": 75065
    },
    {
      "city": "Chicago",
      "country": "US",
      "region": "IL",
      "listeners": 68377
    }
  ],
  "social_links": {
    "facebook": "https://facebook.com/kaskade",
    "instagram": "https://instagram.com/kaskade",
    "twitter": "https://twitter.com/kaskade",
    "wikipedia": "https://en.wikipedia.org/wiki/Kaskade"
  },
  "upcoming_concerts": [
    {
      "title": "Kaskade",
      "date": "2025-03-07T22:30-08:00",
      "location": {
        "name": "Zouk Nightclub",
        "city": "Las Vegas"
      },
      "festival": false
    },
    {
      "title": "Kaskade",
      "date": "2025-03-22T19:00-05:00",
      "location": {
        "name": "The Concourse Project",
        "city": "Austin"
      },
      "festival": false
    },
    {
      "title": "Kaskade",
      "date": "2025-03-29T12:00-04:00",
      "location": {
        "name": "DAER Dayclub South Florida",
        "city": "Hollywood"
      },
      "festival": false
    },
    {
      "title": "Kaskade",
      "date": "2025-04-19T22:30-07:00",
      "location": {
        "name": "Zouk Nightclub",
        "city": "Las Vegas"
      },
      "festival": false
    },
    {
      "title": "Kaskade",
      "date": "2025-04-26T12:00-07:00",
      "location": {
        "name": "AYU Dayclub",
        "city": "Las Vegas"
      },
      "festival": false
    },
    {
      "title": "Kaskade",
      "date": "2025-05-10T19:00-07:00",
      "location": {
        "name": "Zouk Nightclub",
        "city": "Las Vegas"
      },
      "festival": false
    },
    {
      "title": "Kaskade",
      "date": "2025-05-17T19:00-07:00",
      "location": {
        "name": "Las Vegas Motor Speedway",
        "city": "Las Vegas"
      },
      "festival": false
    },
    {
      "title": "Kaskade, Korolova",
      "date": "2025-05-18T19:00-07:00",
      "location": {
        "name": "Las Vegas Motor Speedway",
        "city": "Las Vegas"
      },
      "festival": false
    },
    {
      "title": "Kaskade",
      "date": "2025-05-19T22:30-07:00",
      "location": {
        "name": "Zouk Nightclub",
        "city": "Las Vegas"
      },
      "festival": false
    },
    {
      "title": "BottleRock Napa Valley 2025",
      "date": "2025-05-23T17:00-07:00",
      "location": {
        "name": "Napa Valley Expo",
        "city": "Napa"
      },
      "festival": true
    }
  ]
}