{
  "name": "Da Tweekaz",
  "monthly_listeners": 1963449,
  "followers": 314671,
  "verified": true,
  "top_cities": [
    {
      "city": "Amsterdam",
      "country": "NL",
      "region": "NH",
      "listeners": 95472
    },
    {
      "city": "Rotterdam",
      "country": "NL",
      "region": "ZH",
      "listeners": 70998
    },
    {
      "city": "Hamburg",
      "country": "DE",
      "region": "HH",
      "listeners": 68469
    },
    {
      "city": "Sydney",
      "country": "AU",
      "region": "NSW",
      "listeners": 42806
    },
    {
      "city": "Brussels",
      "country": "BE",
      "region": "BRU",
      "listeners": 41954
    }
  ],
  "social_links": {
    "facebook": "https://facebook.com/datweekaz",
    "instagram": "https://instagram.com/datweekaz",
    "twitter": "https://twitter.com/datweekaz"
  },
  "upcoming_concerts": [
    {
      "title": "Da Tweekaz",
      "date": "2025-03-28T17:00-07:00",
      "location": {
        "name": "NOS Events Center",
        "city": "San Bernardino"
      },
      "festival": false
    },
    {
      "title": "Armin van Buuren, AHEE, ALLEYCVT, AM\u00c9M\u00c9, ARMNHMR, ATLiens, Adam Ten, Ahmed Spins, Alex Chapman, Alignment, Armand Van Helden, Arodes, Avalon, Basstripper, Basswell, BICEP, BIIA, Billy Gillies, Biscits, Brutalismus 3000, CHYL, Caravel, Carlita, Cera Khin, Chase & Status, ChaseWest, Clara Cuv\u00e9, Cloonee, Code Black, D-Sturb, DJ Gigola, Da Tweekaz, DANNY AVILA, Darren Styles, David Forbes, David Rust, Dennis Cruz, Deorro, Disco Lines, Distinct Motive, Drinkurwater, Eric Prydz, Fcukers, Funk Tribu, Fury, Gesaffelstein, Gorgon City, GUDFELLA, HUGEL, Hannah Laing, Hedex, Hot Since 82, I Hate Models, INFEKT, Interplanetary Criminal, INZO, Jackie Hollander, James Hype, Jessica Audiffred, KAMI, Ky William, Kyle Watson, Lake Hills, Lil Texas, Lady Faith, Lavern, Layz, Level Up, Levity, Masha Mar, MPH, MALUGI, Marlon Hoffstadt, Mau P, Mita Gami, Nala, Rusko, SOTA, Dylan Brady, horsegiirL, it's murph",
      "date": "2025-05-16T17:00-07:00",
      "location": {
        "name": "Las Vegas Motor Speedway",
        "city": "Las Vegas"
      },
      "festival": false
    },
    {
      "title": "Da Tweekaz",
      "date": "2025-06-13T22:00+02:00",
      "location": {
        "name": "Zrce Beach",
        "city": "Novalja"
      },
      "festival": false
    },
    {
      "title": "Electric Love Festival 2025",
      "date": "2025-07-03T00:00+02:00",
      "location": {
        "name": "Salzburgring",
        "city": "Plainfeld"
      },
      "festival": true
    }
  ]
}