{
  "name": "Deorro",
  "monthly_listeners": 7693261,
  "followers": 1266518,
  "verified": true,
  "top_cities": [
    {
      "city": "Mexico City",
      "country": "MX",
      "region": "CMX",
      "listeners": 281724
    },
    {
      "city": "Guadalajara",
      "country": "MX",
      "region": "JAL",
      "listeners": 137814
    },
    {
      "city": "Puebla City",
      "country": "MX",
      "region": "PUE",
      "listeners": 114822
    },
    {
      "city": "Quer\u00e9taro City",
      "country": "MX",
      "region": "QUE",
      "listeners": 98945
    },
    {
      "city": "Santiago",
      "country": "CL",
      "region": "RM",
      "listeners": 87825
    }
  ],
  "social_links": {
    "facebook": "https://facebook.com/Deorro",
    "instagram": "https://instagram.com/Deorro",
    "twitter": "https://twitter.com/Deorro",
    "wikipedia": "https://en.wikipedia.org/wiki/Deorro"
  },
  "upcoming_concerts": [
    {
      "title": "Deorro",
      "date": "2025-03-15T22:30-07:00",
      "location": {
        "name": "Hakkasan Nightclub",
        "city": "Las Vegas"
      },
      "festival": false
    },
    {
      "title": "Deorro",
      "date": "2025-03-21T22:30-07:00",
      "location": {
        "name": "Omnia",
        "city": "Las Vegas"
      },
      "festival": false
    },
    {
      "title": "Timmy Trumpet, Deorro, Audien",
      "date": "2025-03-25T22:00-04:00",
      "location": {
        "name": "M2 Miami",
        "city": "Miami Beach"
      },
      "festival": false
    },
    {
      "title": "Deorro, Gabito Ballesteros",
      "date": "2025-04-05T17:00-07:00",
      "location": {
        "name": "Lot425",
        "city": "Sacramento"
      },
      "festival": false
    },
    {
      "title": "Deorro",
      "date": "2025-04-12T22:30-07:00",
      "location": {
        "name": "Omnia",
        "city": "Las Vegas"
      },
      "festival": false
    },
    {
      "title": "Deorro, DJ EU",
      "date": "2025-04-18T22:00-04:00",
      "location": {
        "name": "District Atlanta",
        "city": "Atlanta"
      },
      "festival": false
    },
    {
      "title": "Deorro",
      "date": "2025-04-19T11:00-07:00",
      "location": {
        "name": "Marquee Dayclub",
        "city": "Las Vegas"
      },
      "festival": false
    },
    {
      "title": "Deorro",
      "date": "2025-05-04T22:30-07:00",
      "location": {
        "name": "Omnia",
        "city": "Las Vegas"
      },
      "festival": false
    },
    {
      "title": "Deorro",
      "date": "2025-05-10T11:00-07:00",
      "location": {
        "name": "Marquee Dayclub",
        "city": "Las Vegas"
      },
      "festival": false
    },
    {
      "title": "Armin van Buuren, AHEE, ALLEYCVT, AM\u00c9M\u00c9, ARMNHMR, ATLiens, Adam Ten, Ahmed Spins, Alex Chapman, Alignment, Armand Van Helden, Arodes, Avalon, Basstripper, Basswell, BICEP, BIIA, Billy Gillies, Biscits, Brutalismus 3000, CHYL, Caravel, Carlita, Cera Khin, Chase & Status, ChaseWest, Clara Cuv\u00e9, Cloonee, Code Black, D-Sturb, DJ Gigola, Da Tweekaz, DANNY AVILA, Darren Styles, David Forbes, David Rust, Dennis Cruz, Deorro, Disco Lines, Distinct Motive, Drinkurwater, Eric Prydz, Fcukers, Funk Tribu, Fury, Gesaffelstein, Gorgon City, GUDFELLA, HUGEL, Hannah Laing, Hedex, Hot Since 82, I Hate Models, INFEKT, Interplanetary Criminal, INZO, Jackie Hollander, James Hype, Jessica Audiffred, KAMI, Ky William, Kyle Watson, Lake Hills, Lil Texas, Lady Faith, Lavern, Layz, Level Up, Levity, Masha Mar, MPH, MALUGI, Marlon Hoffstadt, Mau P, Mita Gami, Nala, Rusko, SOTA, Dylan Brady, horsegiirL, it's murph",
      "date": "2025-05-16T17:00-07:00",
      "location": {
        "name": "Las Vegas Motor Speedway",
        "city": "Las Vegas"
      },
      "festival": false
    }
  ]
}