{
  "name": "Black Coffee",
  "monthly_listeners": 2846147,
  "followers": 1351144,
  "verified": true,
  "top_cities": [
    {
      "city": "Johannesburg",
      "country": "ZA",
      "region": "GP",
      "listeners": 106129
    },
    {
      "city": "London",
      "country": "GB",
      "region": "ENG",
      "listeners": 54616
    },
    {
      "city": "Pretoria",
      "country": "ZA",
      "region": "GP",
      "listeners": 54125
    },
    {
      "city": "Cape Town",
      "country": "ZA",
      "region": "WC",
      "listeners": 51880
    },
    {
      "city": "Amsterdam",
      "country": "NL",
      "region": "NH",
      "listeners": 42066
    }
  ],
  "social_links": {
    "facebook": "https://facebook.com/realblackcoffee/",
    "instagram": "https://instagram.com/realblackcoffee/",
    "twitter": "https://twitter.com/RealBlackCoffee"
  },
  "upcoming_concerts": [
    {
      "title": "Black Coffee",
      "date": "2025-03-08T19:00+02:00",
      "location": {
        "name": "Huddle Park Golf & Recreation",
        "city": "Linksfield"
      },
      "festival": false
    },
    {
      "title": "Black Coffee",
      "date": "2025-03-15T19:00+02:00",
      "location": {
        "name": "Toadbury Hall Wedding, Conference & Picnic Venue",
        "city": "Johannesburg"
      },
      "festival": false
    },
    {
      "title": "Black Coffee",
      "date": "2025-03-20T19:00-04:00",
      "location": {
        "name": "District Nightclub",
        "city": "Atlanta"
      },
      "festival": false
    },
    {
      "title": "Black Coffee",
      "date": "2025-03-26T22:00-04:00",
      "location": {
        "name": "District Atlanta",
        "city": "Atlanta"
      },
      "festival": false
    },
    {
      "title": "Black Coffee",
      "date": "2025-03-27T23:00-04:00",
      "location": {
        "name": "LIV Nightclub Miami",
        "city": "Miami Beach"
      },
      "festival": false
    },
    {
      "title": "Black Coffee",
      "date": "2025-03-28T21:30-04:00",
      "location": {
        "name": "Big Night Live",
        "city": "Boston"
      },
      "festival": false
    },
    {
      "title": "Black Coffee, Paco Osuna",
      "date": "2025-03-29T19:00-04:00",
      "location": {
        "name": "Factory Town",
        "city": "Miami"
      },
      "festival": false
    },
    {
      "title": "Black Coffee",
      "date": "2025-03-30T15:00-06:00",
      "location": {
        "name": "The Snow Lodge",
        "city": "Aspen"
      },
      "festival": false
    },
    {
      "title": "Black Coffee",
      "date": "2025-03-30T19:00-06:00",
      "location": {
        "name": "Belly Up Aspen",
        "city": "Aspen"
      },
      "festival": false
    },
    {
      "title": "Black Coffee",
      "date": "2025-04-01T18:00+03:00",
      "location": {
        "name": "Solymar Beach",
        "city": "Manama"
      },
      "festival": false
    }
  ]
}