{
  "name": "Bassjackers",
  "monthly_listeners": 2933784,
  "followers": 761034,
  "verified": true,
  "top_cities": [
    {
      "city": "Hamburg",
      "country": "DE",
      "region": "HH",
      "listeners": 62074
    },
    {
      "city": "Amsterdam",
      "country": "NL",
      "region": "NH",
      "listeners": 47791
    },
    {
      "city": "Munich",
      "country": "DE",
      "region": "BY",
      "listeners": 43212
    },
    {
      "city": "Berlin",
      "country": "DE",
      "region": "BE",
      "listeners": 41438
    },
    {
      "city": "Brussels",
      "country": "BE",
      "region": "BRU",
      "listeners": 41141
    }
  ],
  "social_links": {
    "instagram": "https://instagram.com/bassjackers",
    "wikipedia": "https://en.wikipedia.org/wiki/Bassjackers"
  },
  "upcoming_concerts": [
    {
      "title": "Bassjackers",
      "date": "2025-03-19T20:15+01:00",
      "location": {
        "name": "Alpe d'Huez",
        "city": "Huez"
      },
      "festival": false
    },
    {
      "title": "Bassjackers",
      "date": "2025-04-12T22:00-07:00",
      "location": {
        "name": "Academy Nightclub",
        "city": "Los Angeles"
      },
      "festival": false
    },
    {
      "title": "Bassjackers",
      "date": "2025-04-17T21:00-06:00",
      "location": {
        "name": "Union Hall",
        "city": "Edmonton"
      },
      "festival": false
    },
    {
      "title": "Bassjackers",
      "date": "2025-04-18T21:00-06:00",
      "location": {
        "name": "The Back Alley Nightclub",
        "city": "Calgary"
      },
      "festival": false
    },
    {
      "title": "Bassjackers",
      "date": "2025-04-19T00:00-05:00",
      "location": {
        "name": "Exchange Event Centre",
        "city": "Winnipeg"
      },
      "festival": false
    },
    {
      "title": "Bassjackers",
      "date": "2025-04-19T21:00-05:00",
      "location": {
        "name": "Exchange Event Centre",
        "city": "Winnipeg"
      },
      "festival": false
    }
  ]
}