{
  "name": "BLOND:ISH",
  "monthly_listeners": 5275881,
  "followers": 144111,
  "verified": true,
  "top_cities": [
    {
      "city": "Mexico City",
      "country": "MX",
      "region": "CMX",
      "listeners": 95768
    },
    {
      "city": "Sydney",
      "country": "AU",
      "region": "NSW",
      "listeners": 81966
    },
    {
      "city": "Melbourne",
      "country": "AU",
      "region": "VIC",
      "listeners": 68005
    },
    {
      "city": "Santiago",
      "country": "CL",
      "region": "RM",
      "listeners": 60006
    },
    {
      "city": "S\u00e3o Paulo",
      "country": "BR",
      "region": "SP",
      "listeners": 59005
    }
  ],
  "social_links": {
    "facebook": "https://facebook.com/Blondish",
    "instagram": "https://instagram.com/Blondish",
    "twitter": "https://twitter.com/Blond_ish"
  },
  "upcoming_concerts": [
    {
      "title": "BLOND:ISH",
      "date": "2025-03-07T20:00-03:00",
      "location": {
        "name": "BOMA @ Museum of Tomorrow",
        "city": "Rio De Janeiro"
      },
      "festival": false
    },
    {
      "title": "BLOND:ISH",
      "date": "2025-03-08T20:00-03:00",
      "location": {
        "name": "Camarote Alma Rio ",
        "city": "Rio De Janeiro"
      },
      "festival": false
    },
    {
      "title": "Michael Bibi, BLOND:ISH",
      "date": "2025-03-15T17:00-07:00",
      "location": {
        "name": "Hollywood BLVD",
        "city": "Los Angeles"
      },
      "festival": false
    },
    {
      "title": "BLOND:ISH",
      "date": "2025-03-21T12:00-03:00",
      "location": {
        "name": "HIP\u00d3DROMO DE SAN ISIDRO",
        "city": "Buenos Aires"
      },
      "festival": false
    },
    {
      "title": "BLOND:ISH",
      "date": "2025-03-22T12:00-03:00",
      "location": {
        "name": "Lollapoalooza",
        "city": "Santiago"
      },
      "festival": false
    },
    {
      "title": "BLOND:ISH",
      "date": "2025-03-27T12:00-05:00",
      "location": {
        "name": "Parque Metropolitano Sim\u00f3n Bol\u00edvar",
        "city": "Bogot\u00e1"
      },
      "festival": false
    },
    {
      "title": "BLOND:ISH",
      "date": "2025-03-30T12:00-03:00",
      "location": {
        "name": "Lollapalooza",
        "city": "S\u00e3o Paulo"
      },
      "festival": false
    },
    {
      "title": "BLOND:ISH",
      "date": "2025-04-26T12:00+09:00",
      "location": {
        "name": "EDC Korea",
        "city": "Incheon"
      },
      "festival": false
    },
    {
      "title": "BLOND:ISH, Ben Sterling, Nico de Andrea",
      "date": "2025-05-10T16:00-04:00",
      "location": {
        "name": "Location TBA, New York City, Brooklyn",
        "city": "Brooklyn"
      },
      "festival": false
    },
    {
      "title": "BLOND:ISH",
      "date": "2025-05-10T19:00-04:00",
      "location": {
        "name": "Abracadabra NY",
        "city": "New York City"
      },
      "festival": false
    }
  ]
}