{
  "name": "Dimitri Vegas & Like Mike",
  "monthly_listeners": 14134740,
  "followers": 3558118,
  "verified": true,
  "top_cities": [
    {
      "city": "Amsterdam",
      "country": "NL",
      "region": "NH",
      "listeners": 234680
    },
    {
      "city": "Hamburg",
      "country": "DE",
      "region": "HH",
      "listeners": 228304
    },
    {
      "city": "Brussels",
      "country": "BE",
      "region": "BRU",
      "listeners": 207671
    },
    {
      "city": "Mexico City",
      "country": "MX",
      "region": "CMX",
      "listeners": 190300
    },
    {
      "city": "Munich",
      "country": "DE",
      "region": "BY",
      "listeners": 173320
    }
  ],
  "social_links": {
    "facebook": "https://facebook.com/dimitrivegasandlikemike",
    "instagram": "https://instagram.com/dimitrivegasandlikemike",
    "twitter": "https://twitter.com/dimitrivegas"
  },
  "upcoming_concerts": [
    {
      "title": "Dimitri Vegas & Like Mike",
      "date": "2025-05-01T13:00+02:00",
      "location": {
        "name": "Ischgl",
        "city": "Ischgl"
      },
      "festival": false
    },
    {
      "title": "Dimitri Vegas & Like Mike",
      "date": "2025-05-14T17:00+02:00",
      "location": {
        "name": "Ushua\u00efa Ibiza",
        "city": "Ibiza"
      },
      "festival": false
    },
    {
      "title": "Dimitri Vegas & Like Mike",
      "date": "2025-05-21T17:00+02:00",
      "location": {
        "name": "Ushua\u00efa Ibiza",
        "city": "Ibiza"
      },
      "festival": false
    },
    {
      "title": "Dimitri Vegas & Like Mike",
      "date": "2025-05-28T17:00+02:00",
      "location": {
        "name": "Ushua\u00efa Ibiza",
        "city": "Ibiza"
      },
      "festival": false
    },
    {
      "title": "Dimitri Vegas & Like Mike",
      "date": "2025-06-04T17:00+02:00",
      "location": {
        "name": "Ushua\u00efa Ibiza",
        "city": "Ibiza"
      },
      "festival": false
    },
    {
      "title": "Dimitri Vegas & Like Mike",
      "date": "2025-06-07T17:00+02:00",
      "location": {
        "name": "Commerzbank-Arena",
        "city": "Frankfurt Am Main"
      },
      "festival": false
    },
    {
      "title": "Dimitri Vegas & Like Mike",
      "date": "2025-06-08T17:00+02:00",
      "location": {
        "name": "Recreation The Rutbeek",
        "city": "Enschede"
      },
      "festival": false
    },
    {
      "title": "Dimitri Vegas & Like Mike",
      "date": "2025-06-11T17:00+02:00",
      "location": {
        "name": "Ushua\u00efa Ibiza",
        "city": "Ibiza"
      },
      "festival": false
    },
    {
      "title": "Dimitri Vegas & Like Mike",
      "date": "2025-06-18T17:00+02:00",
      "location": {
        "name": "Ushua\u00efa Ibiza",
        "city": "Ibiza"
      },
      "festival": false
    },
    {
      "title": "Dimitri Vegas & Like Mike",
      "date": "2025-06-25T17:00+02:00",
      "location": {
        "name": "Ushua\u00efa Ibiza",
        "city": "Ibiza"
      },
      "festival": false
    }
  ]
}