{
  "name": "NGHTMRE",
  "monthly_listeners": 1930043,
  "followers": 472111,
  "verified": true,
  "top_cities": [
    {
      "city": "Los Angeles",
      "country": "US",
      "region": "CA",
      "listeners": 38360
    },
    {
      "city": "Denver",
      "country": "US",
      "region": "CO",
      "listeners": 36305
    },
    {
      "city": "Chicago",
      "country": "US",
      "region": "IL",
      "listeners": 32977
    },
    {
      "city": "Sydney",
      "country": "AU",
      "region": "NSW",
      "listeners": 26890
    },
    {
      "city": "Dallas",
      "country": "US",
      "region": "TX",
      "listeners": 25316
    }
  ],
  "social_links": {
    "facebook": "https://facebook.com/nghtmre",
    "instagram": "https://instagram.com/nghtmre",
    "twitter": "https://twitter.com/nghtmre",
    "wikipedia": "https://en.wikipedia.org/wiki/Nghtmre"
  },
  "upcoming_concerts": [
    {
      "title": "NGHTMRE",
      "date": "2025-03-14T21:00-05:00",
      "location": {
        "name": "SILO",
        "city": "Dallas"
      },
      "festival": false
    },
    {
      "title": "NGHTMRE",
      "date": "2025-03-15T22:00-05:00",
      "location": {
        "name": "Stereo Live Houston",
        "city": "Houston"
      },
      "festival": false
    },
    {
      "title": "NGHTMRE",
      "date": "2025-03-27T20:00-05:00",
      "location": {
        "name": "The Concourse Project",
        "city": "Austin"
      },
      "festival": false
    },
    {
      "title": "999999999, Above & Beyond, Adam Beyer, AFROJACK, Alesso, Anyma, Solomun, Armin van Buuren, ARTBAT, Axwell, Boris Brejcha, Carl Cox, Charlotte de Witte, Chase & Status, deadmau5, Pendulum, Eli Brown, Dom Dolla, John Summit, Four Tet, Gesaffelstein, Hardwell, I Hate Models, LSDREAM, CloZee, Martin Garrix, Mau P, Miss Monique, Nero, NGHTMRE, Sullivan King, Richie Hawtin, Subtronics, Ti\u00ebsto, Zedd, Zeds Dead",
      "date": "2025-03-30T12:00-04:00",
      "location": {
        "name": "FPL Solar Amphitheater at Bayfront Park",
        "city": "Miami"
      },
      "festival": false
    },
    {
      "title": "Rezz, Louis The Child, NGHTMRE, Of The Trees, Said The Sky, Netsky, it's murph, Kaivon, Hybrid Minds, Zero, Jon Casey, Edward Joseph",
      "date": "2025-04-04T17:00-07:00",
      "location": {
        "name": "Phoenix Raceway",
        "city": "Avondale"
      },
      "festival": false
    },
    {
      "title": "Kill The Noise, Body Ocean, Bommer, COPYCATT, Codd Dubz, Lunice, NGHTMRE, Nikademis, Pauline Herr, Redline, Skybreak, Space Laces, SVDDEN DEATH, Synymata, Trivecta, Vastive, VCTRE, William Black",
      "date": "2025-04-25T17:00-07:00",
      "location": {
        "name": "Lake Perris State Recreation Area",
        "city": "Perris"
      },
      "festival": false
    },
    {
      "title": "NGHTMRE",
      "date": "2025-05-23T22:00-04:00",
      "location": {
        "name": "District Atlanta",
        "city": "Atlanta"
      },
      "festival": false
    },
    {
      "title": "Kaskade, NGHTMRE, ALLEYCVT, D.O.D, GorillaT, HUGEL, JEV, Jackie Hollander, James Hype, Joel Corry, Level Up, Levity, MC4D, Nikita, the Wicked, Noizu, Odd Mob, ROSSY, SABAI, Subtronics, TWINSICK, Tom & Collins, $wooli, XANDRA, SLANDER",
      "date": "2025-05-31T17:00-04:00",
      "location": {
        "name": "RFK Festival Grounds",
        "city": "Washington"
      },
      "festival": false
    },
    {
      "title": "Chase & Status, NGHTMRE, AM\u00c9M\u00c9, Cloonee, HUGEL, HoneyLuv, INFEKT, INZO, Jackie Hollander, LP Giobbi, Level Up, MPH, OG Nixin, PEEKABOO, Shanghai Doom, Steller, Subtronics, Tita Lau, Tom & Collins, Tony H, Trivecta, Walker & Royce, Zomboy, it's murph, Eli Brown, SLANDER",
      "date": "2025-06-21T17:00-07:00",
      "location": {
        "name": "Gorge Amphitheatre",
        "city": "Quincy"
      },
      "festival": false
    },
    {
      "title": "Chris Lake, deadmau5, Excision, Galantis, Kaskade, Louis The Child, Of The Trees, Rezz, RL Grime, Seven Lions, Sofi Tukker, Timmy Trumpet, SVDDEN DEATH, Zedd, Zeds Dead, Apashe, Benny Benassi, Detox Unit, Kai Wachi, KREAM, LP Giobbi, NGHTMRE, Dimension, PEEKABOO, Caspa, Ray Volpe, Tinlicker, Wax Motif, BONNIE X CLYDE, Distinct Motive, Heyz, Ian Asher, Jon Casey, Joshwa, Juelz, Kaleena Zanders, Lil Texas, MC4D, Skepsis, Westend, YOOKiE, Audiofreq, Caster, Control Freak, Darksiderz, Dennett, Muzz, Kreation, Dogma, Prosecute, Pyke, Rohaan, Seth David, Sherm, The Stooges, VKTM, Pyke, Taiki Nulight",
      "date": "2025-08-29T00:00-05:00",
      "location": {
        "name": "SeatGeek Stadium",
        "city": "Bridgeview"
      },
      "festival": false
    }
  ]
}