{
  "name": "Steve Aoki",
  "monthly_listeners": 15475018,
  "followers": 3804246,
  "verified": true,
  "top_cities": [
    {
      "city": "Mexico City",
      "country": "MX",
      "region": "CMX",
      "listeners": 361983
    },
    {
      "city": "Santiago",
      "country": "CL",
      "region": "RM",
      "listeners": 195757
    },
    {
      "city": "Guadalajara",
      "country": "MX",
      "region": "JAL",
      "listeners": 174514
    },
    {
      "city": "Puebla City",
      "country": "MX",
      "region": "PUE",
      "listeners": 143996
    },
    {
      "city": "Sydney",
      "country": "AU",
      "region": "NSW",
      "listeners": 134212
    }
  ],
  "social_links": {
    "facebook": "https://facebook.com/steveaoki",
    "instagram": "https://instagram.com/steveaoki",
    "twitter": "https://twitter.com/steveaoki"
  },
  "upcoming_concerts": [
    {
      "title": "Steve Aoki",
      "date": "2025-03-06T22:30-08:00",
      "location": {
        "name": "Hakkasan Nightclub",
        "city": "Las Vegas"
      },
      "festival": false
    },
    {
      "title": "Steve Aoki",
      "date": "2025-03-07T22:00-06:00",
      "location": {
        "name": "Stereo Live Houston",
        "city": "Houston"
      },
      "festival": false
    },
    {
      "title": "Steve Aoki",
      "date": "2025-03-08T20:00-04:00",
      "location": {
        "name": "El Patio Fusion Lounge",
        "city": "Dorado"
      },
      "festival": false
    },
    {
      "title": "Steve Aoki",
      "date": "2025-03-21T20:00+02:00",
      "location": {
        "name": "Laminor Arena",
        "city": "Bucure\u0219ti"
      },
      "festival": false
    },
    {
      "title": "Steve Aoki, Dave Replay",
      "date": "2025-03-22T22:00+01:00",
      "location": {
        "name": "Bootshaus Cologne",
        "city": "Cologne"
      },
      "festival": false
    },
    {
      "title": "Steve Aoki, AFROJACK, Chitas, Crankdat, Gil Glaze, LTJ Bukem, MR.BLACK, Nifra, Oliver Heldens, Said The Sky, Sam Feldt, Sullivan King, TOKiMONSTA, Timmy Trumpet, Miss Monique",
      "date": "2025-03-28T17:00-04:00",
      "location": {
        "name": "Bayfront Park",
        "city": "Miami"
      },
      "festival": false
    },
    {
      "title": "Steve Aoki",
      "date": "2025-03-28T21:00-05:00",
      "location": {
        "name": "SkyDeck @ Assembly Food Hall",
        "city": "Nashville"
      },
      "festival": false
    },
    {
      "title": "Steve Aoki",
      "date": "2025-03-29T22:30-07:00",
      "location": {
        "name": "Hakkasan Nightclub",
        "city": "Las Vegas"
      },
      "festival": false
    },
    {
      "title": "Steve Aoki",
      "date": "2025-03-30T20:00-04:00",
      "location": {
        "name": "E11EVEN",
        "city": "Miami"
      },
      "festival": false
    },
    {
      "title": "Steve Aoki, Gil Glaze",
      "date": "2025-04-04T22:00+02:00",
      "location": {
        "name": "Kaufleuten",
        "city": "Zurich"
      },
      "festival": false
    }
  ]
}