{
  "name": "Fedde Le Grand",
  "monthly_listeners": 3249695,
  "followers": 384388,
  "verified": true,
  "top_cities": [
    {
      "city": "Sydney",
      "country": "AU",
      "region": "NSW",
      "listeners": 65717
    },
    {
      "city": "Melbourne",
      "country": "AU",
      "region": "VIC",
      "listeners": 63879
    },
    {
      "city": "London",
      "country": "GB",
      "region": "ENG",
      "listeners": 52370
    },
    {
      "city": "S\u00e3o Paulo",
      "country": "BR",
      "region": "SP",
      "listeners": 47378
    },
    {
      "city": "Brisbane",
      "country": "AU",
      "region": "QLD",
      "listeners": 43383
    }
  ],
  "social_links": {
    "facebook": "https://facebook.com/FeddeLeGrand",
    "instagram": "https://instagram.com/feddelegrand",
    "twitter": "https://twitter.com/feddelegrand",
    "wikipedia": "https://wikipedia.org/wiki/Fedde_Le_Grand"
  },
  "upcoming_concerts": [
    {
      "title": "Fedde Le Grand",
      "date": "2025-03-07T22:00-08:00",
      "location": {
        "name": "Academy Nightclub",
        "city": "Los Angeles"
      },
      "festival": false
    },
    {
      "title": "Fedde Le Grand",
      "date": "2025-03-22T22:30-04:00",
      "location": {
        "name": "DPRTMNT",
        "city": "Toronto"
      },
      "festival": false
    },
    {
      "title": "Fedde Le Grand",
      "date": "2025-03-28T22:00-07:00",
      "location": {
        "name": "Q Nightclub",
        "city": "Seattle"
      },
      "festival": false
    },
    {
      "title": "Fedde Le Grand",
      "date": "2025-03-29T22:15-07:00",
      "location": {
        "name": "Almost Famous",
        "city": "Scottsdale"
      },
      "festival": false
    },
    {
      "title": "Fedde Le Grand, OFFAIAH",
      "date": "2025-06-28T14:00-04:00",
      "location": {
        "name": "Spring Place",
        "city": "New York"
      },
      "festival": false
    },
    {
      "title": "Cafe Mambo Ibiza, Jax Jones, Fedde Le Grand",
      "date": "2025-07-11T17:00+01:00",
      "location": {
        "name": "Bedford Park",
        "city": "Bedford "
      },
      "festival": false
    }
  ]
}