{
  "name": "Lost Frequencies",
  "monthly_listeners": 25209258,
  "followers": 3002831,
  "verified": true,
  "top_cities": [
    {
      "city": "Amsterdam",
      "country": "NL",
      "region": "NH",
      "listeners": 426743
    },
    {
      "city": "Brussels",
      "country": "BE",
      "region": "BRU",
      "listeners": 355767
    },
    {
      "city": "Sydney",
      "country": "AU",
      "region": "NSW",
      "listeners": 328539
    },
    {
      "city": "Warsaw",
      "country": "PL",
      "region": "14",
      "listeners": 306493
    },
    {
      "city": "Mexico City",
      "country": "MX",
      "region": "CMX",
      "listeners": 289309
    }
  ],
  "social_links": {
    "facebook": "https://facebook.com/LostFrequenciesMusic",
    "instagram": "https://instagram.com/lostfrequencies",
    "twitter": "https://twitter.com/LFrequencies"
  },
  "upcoming_concerts": [
    {
      "title": "Lost Frequencies, Andromedik",
      "date": "2025-03-19T17:00+01:00",
      "location": {
        "name": "Alpe d'Huez",
        "city": "Huez"
      },
      "festival": false
    },
    {
      "title": "Lost Frequencies, Dimitri Vegas & Like Mike",
      "date": "2025-03-20T17:00+01:00",
      "location": {
        "name": "Alpe d'Huez",
        "city": "Huez"
      },
      "festival": false
    },
    {
      "title": "Lost Frequencies",
      "date": "2025-03-21T19:00Z",
      "location": {
        "name": "Roundhouse",
        "city": "London"
      },
      "festival": false
    },
    {
      "title": "Lost Frequencies",
      "date": "2025-04-05T22:30-07:00",
      "location": {
        "name": "Omnia",
        "city": "Las Vegas"
      },
      "festival": false
    },
    {
      "title": "Lost Frequencies",
      "date": "2025-05-16T17:00+02:00",
      "location": {
        "name": "Horizon Lake Garda Music Festival",
        "city": "Torbole Sul Garda"
      },
      "festival": false
    },
    {
      "title": "Lost Frequencies",
      "date": "2025-06-20T17:00+03:00",
      "location": {
        "name": "Arena Sofia (Velodrome)",
        "city": "Sofia"
      },
      "festival": false
    },
    {
      "title": "Lost Frequencies",
      "date": "2025-06-21T17:00+02:00",
      "location": {
        "name": "Silesia Park",
        "city": "Chorz\u00f3w"
      },
      "festival": false
    },
    {
      "title": "Lost Frequencies",
      "date": "2025-06-28T15:00+02:00",
      "location": {
        "name": "ZOA City",
        "city": "Z\u00fcrich (kreis 7)"
      },
      "festival": false
    },
    {
      "title": "Lost Frequencies, Andromedik",
      "date": "2025-07-11T17:00+03:00",
      "location": {
        "name": "P\u00e4rnu Rannapark",
        "city": "P\u00e4rnu"
      },
      "festival": false
    },
    {
      "title": "Dimitri Vegas & Like Mike, Henri PFR, Lost Frequencies, hayve, Miss Monique",
      "date": "2025-07-19T17:00+02:00",
      "location": {
        "name": "Provincial Recreation Domain De Schorre",
        "city": "Boom"
      },
      "festival": false
    }
  ]
}