{
  "name": "ATB",
  "monthly_listeners": 6107775,
  "followers": 424755,
  "verified": true,
  "top_cities": [
    {
      "city": "Warsaw",
      "country": "PL",
      "region": "14",
      "listeners": 122266
    },
    {
      "city": "Mexico City",
      "country": "MX",
      "region": "CMX",
      "listeners": 87797
    },
    {
      "city": "Sydney",
      "country": "AU",
      "region": "NSW",
      "listeners": 84954
    },
    {
      "city": "Melbourne",
      "country": "AU",
      "region": "VIC",
      "listeners": 74622
    },
    {
      "city": "S\u00e3o Paulo",
      "country": "BR",
      "region": "SP",
      "listeners": 74407
    }
  ],
  "social_links": {
    "facebook": "https://facebook.com/ATB/?fb_dtsg_ag=Adwqf5xR9HWoFoVYCcdWo_FOqJ75qwct9V4u6GWsgOJq2Q%3AAdx11YFIVJs0TQLB5rhQdpK-jtGeie2-ecvhfmbkkuxfSg",
    "instagram": "https://instagram.com/atbandre/?hl=de",
    "twitter": "https://twitter.com/atbandre?lang=de",
    "wikipedia": "https://de.wikipedia.org/wiki/ATB_(DJ)"
  },
  "upcoming_concerts": [
    {
      "title": "ATB",
      "date": "2025-03-22T09:00+01:00",
      "location": {
        "name": "Rotunde Bochum",
        "city": "Bochum"
      },
      "festival": false
    },
    {
      "title": "ATB",
      "date": "2025-05-04T16:00+01:00",
      "location": {
        "name": "The Steel Yard",
        "city": "London"
      },
      "festival": false
    },
    {
      "title": "ATB",
      "date": "2025-05-04T20:00+01:00",
      "location": {
        "name": "The Steel Yard",
        "city": "London"
      },
      "festival": false
    },
    {
      "title": "ATB",
      "date": "2025-05-09T21:00+03:00",
      "location": {
        "name": "\u017dalgiris arena",
        "city": "Kaunas"
      },
      "festival": false
    },
    {
      "title": "ATB",
      "date": "2025-06-06T17:00+02:00",
      "location": {
        "name": "Campus Martius",
        "city": "Kar\u0142owice"
      },
      "festival": false
    },
    {
      "title": "ATB",
      "date": "2025-06-06T17:00+01:00",
      "location": {
        "name": "Elvaston Castle Country Park",
        "city": "Derby"
      },
      "festival": false
    },
    {
      "title": "ATB",
      "date": "2025-06-20T17:00+02:00",
      "location": {
        "name": "PREZERO ARENA GLIWICE",
        "city": "Gliwice"
      },
      "festival": false
    },
    {
      "title": "ATB",
      "date": "2025-07-12T11:00+01:00",
      "location": {
        "name": "Don Valley Bowl",
        "city": "Sheffield"
      },
      "festival": false
    },
    {
      "title": "ATB",
      "date": "2025-07-19T23:30+02:00",
      "location": {
        "name": "Weeze Airport",
        "city": "Weeze"
      },
      "festival": false
    },
    {
      "title": "ATB",
      "date": "2025-07-26T21:00+02:00",
      "location": {
        "name": "Gianpula Village",
        "city": "Haz-zebbug"
      },
      "festival": false
    }
  ]
}