{
  "name": "Layton Giordani",
  "monthly_listeners": 2277663,
  "followers": 96461,
  "verified": true,
  "top_cities": [
    {
      "city": "Mexico City",
      "country": "MX",
      "region": "CMX",
      "listeners": 33141
    },
    {
      "city": "Melbourne",
      "country": "AU",
      "region": "VIC",
      "listeners": 31791
    },
    {
      "city": "Los Angeles",
      "country": "US",
      "region": "CA",
      "listeners": 29496
    },
    {
      "city": "Amsterdam",
      "country": "NL",
      "region": "NH",
      "listeners": 28922
    },
    {
      "city": "Sydney",
      "country": "AU",
      "region": "NSW",
      "listeners": 28246
    }
  ],
  "social_links": {
    "facebook": "https://facebook.com/laytongiordani",
    "instagram": "https://instagram.com/laytongiordani",
    "twitter": "https://twitter.com/laytongiordani"
  },
  "upcoming_concerts": [
    {
      "title": "Layton Giordani",
      "date": "2025-03-08T22:00-03:00",
      "location": {
        "name": "HANGAR 33",
        "city": "Ciudad De La Costa"
      },
      "festival": false
    },
    {
      "title": "Layton Giordani",
      "date": "2025-03-14T22:00-03:00",
      "location": {
        "name": "Bodega A16",
        "city": "Mendoza"
      },
      "festival": false
    },
    {
      "title": "Layton Giordani",
      "date": "2025-03-15T23:00-03:00",
      "location": {
        "name": "La Estaci\u00f3n",
        "city": "C\u00f3rdoba"
      },
      "festival": false
    },
    {
      "title": "Max Styler, Layton Giordani",
      "date": "2025-03-26T23:00-04:00",
      "location": {
        "name": "Toe Jam Backlot",
        "city": "Miami"
      },
      "festival": false
    },
    {
      "title": "Green Velvet, Layton Giordani, Justin Martin, AYYBO, Victor Calderone, Shimza, RaeCola, Cajmere, Monoky",
      "date": "2025-03-29T13:00-04:00",
      "location": {
        "name": "National Hotel",
        "city": "Miami"
      },
      "festival": false
    },
    {
      "title": "Max Styler, Layton Giordani",
      "date": "2025-03-29T22:00-04:00",
      "location": {
        "name": "Factory Town",
        "city": "Miami"
      },
      "festival": false
    },
    {
      "title": "Layton Giordani, VAVO",
      "date": "2025-04-04T22:00-04:00",
      "location": {
        "name": "Decca Live",
        "city": "Jacksonville"
      },
      "festival": false
    },
    {
      "title": "Layton Giordani",
      "date": "2025-04-05T22:30-07:00",
      "location": {
        "name": "LIV Las Vegas",
        "city": "Las Vegas"
      },
      "festival": false
    },
    {
      "title": "Layton Giordani",
      "date": "2025-04-25T22:00+09:00",
      "location": {
        "name": "EDC Korea",
        "city": "Incheon"
      },
      "festival": false
    },
    {
      "title": "Layton Giordani",
      "date": "2025-05-02T11:30-07:00",
      "location": {
        "name": "LIV Beach",
        "city": "Las Vegas"
      },
      "festival": false
    }
  ]
}