{
  "name": "Flux Pavilion",
  "monthly_listeners": 1841862,
  "followers": 716542,
  "verified": true,
  "top_cities": [
    {
      "city": "Denver",
      "country": "US",
      "region": "CO",
      "listeners": 33598
    },
    {
      "city": "Los Angeles",
      "country": "US",
      "region": "CA",
      "listeners": 29271
    },
    {
      "city": "Chicago",
      "country": "US",
      "region": "IL",
      "listeners": 28434
    },
    {
      "city": "Sydney",
      "country": "AU",
      "region": "NSW",
      "listeners": 25254
    },
    {
      "city": "Brisbane",
      "country": "AU",
      "region": "QLD",
      "listeners": 23287
    }
  ],
  "social_links": {
    "facebook": "https://facebook.com/fluxpavilion/",
    "instagram": "https://instagram.com/fluxpavilion",
    "twitter": "https://twitter.com/Fluxpavilion",
    "wikipedia": "https://en.wikipedia.org/wiki/Flux_Pavilion"
  },
  "upcoming_concerts": [
    {
      "title": "ATLiens, Flux Pavilion, REAPER, YDG, Stooki Sound, YDG",
      "date": "2025-03-08T17:00-08:00",
      "location": {
        "name": "The Torch at LA Coliseum",
        "city": "Los Angeles"
      },
      "festival": false
    },
    {
      "title": "Sullivan King, Flux Pavilion, Grabbitz, RZRKT, YOOKiE",
      "date": "2025-03-14T20:00-07:00",
      "location": {
        "name": "Bill Graham Civic Auditorium",
        "city": "San Francisco"
      },
      "festival": false
    },
    {
      "title": "Flux Pavilion",
      "date": "2025-03-15T22:00-07:00",
      "location": {
        "name": "Bloom",
        "city": "San Diego"
      },
      "festival": false
    },
    {
      "title": "Flux Pavilion",
      "date": "2025-03-21T22:00-05:00",
      "location": {
        "name": "Stereo Live Dallas",
        "city": "Dallas"
      },
      "festival": false
    },
    {
      "title": "Flux Pavilion, Captain Malik",
      "date": "2025-03-22T22:00-04:00",
      "location": {
        "name": "Believe Music Hall",
        "city": "Atlanta"
      },
      "festival": false
    },
    {
      "title": "Flux Pavilion",
      "date": "2025-03-23T12:00-07:00",
      "location": {
        "name": "Maya Dayclub",
        "city": "Scottsdale"
      },
      "festival": false
    }
  ]
}