{
  "name": "Alan Walker",
  "monthly_listeners": 25614429,
  "followers": 40331729,
  "verified": true,
  "top_cities": [
    {
      "city": "Jakarta",
      "country": "ID",
      "region": "JK",
      "listeners": 617409
    },
    {
      "city": "Bengaluru",
      "country": "IN",
      "region": "KA",
      "listeners": 294364
    },
    {
      "city": "Mexico City",
      "country": "MX",
      "region": "CMX",
      "listeners": 261478
    },
    {
      "city": "Oslo",
      "country": "NO",
      "region": "03",
      "listeners": 259721
    },
    {
      "city": "S\u00e3o Paulo",
      "country": "BR",
      "region": "SP",
      "listeners": 229768
    }
  ],
  "social_links": {
    "facebook": "https://facebook.com/alanwalkermusic",
    "instagram": "https://instagram.com/alanwalkermusic/",
    "twitter": "https://twitter.com/iamalanwalker"
  },
  "upcoming_concerts": [
    {
      "title": "Alan Walker",
      "date": "2025-03-06T20:30+01:00",
      "location": {
        "name": "Sala Razzmatazz 1",
        "city": "Barcelona"
      },
      "festival": false
    },
    {
      "title": "Alan Walker",
      "date": "2025-03-08T21:00+01:00",
      "location": {
        "name": "Unipol Forum",
        "city": "Assago"
      },
      "festival": false
    },
    {
      "title": "Alan Walker",
      "date": "2025-03-10T20:00+01:00",
      "location": {
        "name": "Zenith",
        "city": "M\u00fcnchen"
      },
      "festival": false
    },
    {
      "title": "Alan Walker",
      "date": "2025-03-12T19:00+01:00",
      "location": {
        "name": "Papp L\u00e1szl\u00f3 Budapest Sportar\u00e9na",
        "city": "Budapest"
      },
      "festival": false
    },
    {
      "title": "Alan Walker",
      "date": "2025-03-13T19:00+01:00",
      "location": {
        "name": "Gasometer",
        "city": "Wien"
      },
      "festival": false
    },
    {
      "title": "Alan Walker",
      "date": "2025-03-15T20:00+01:00",
      "location": {
        "name": "Forum Karl\u00edn",
        "city": "Praha 8"
      },
      "festival": false
    },
    {
      "title": "Alan Walker",
      "date": "2025-03-16T18:00+01:00",
      "location": {
        "name": "Atlas Arena",
        "city": "\u0141\u00f3d\u017a "
      },
      "festival": false
    },
    {
      "title": "Alan Walker",
      "date": "2025-03-17T20:00+01:00",
      "location": {
        "name": "Columbiahalle",
        "city": "Berlin"
      },
      "festival": false
    },
    {
      "title": "Alan Walker",
      "date": "2025-03-20T20:00+01:00",
      "location": {
        "name": "AFAS Live",
        "city": "Amsterdam"
      },
      "festival": false
    },
    {
      "title": "Alan Walker",
      "date": "2025-03-22T18:30Z",
      "location": {
        "name": "Alexandra Palace",
        "city": "London"
      },
      "festival": false
    }
  ]
}